datacoverage,elevation,elevationUnit,id,latitude,longitude,maxdate,mindate,name,square_diagonal,query_count,query_long,query_lat,dist_from_center,p_name
0.9995,304.8,METERS,GHCND_USW00013969,36.73667,-97.10194,2018-10-16,1948-01-01,"PONCA CITY MUNICIPAL AIRPORT, OK US",2.139864107581439,14,-97.30629717500003,36.57236455833334,0.26221772086429707,Thunder Ranch
0.9872,299.9,METERS,GHCND_USW00003965,36.1624,-97.0894,2018-10-16,1996-11-01,"STILLWATER REGIONAL AIRPORT, OK US",2.139864107581439,14,-97.30629717500003,36.57236455833334,0.46380526475283307,Thunder Ranch
0.9675,272.8,METERS,GHCND_USC00348501,36.1175,-97.095,2018-10-17,1893-01-01,"STILLWATER 2 W, OK US",2.139864107581439,14,-97.30629717500003,36.57236455833334,0.5015458728678539,Thunder Ranch
0.8607,1309.4,METERS,GHCND_USW00024030,41.0993,-102.9863,2018-10-16,1948-01-01,"SIDNEY MUNICIPAL AIRPORT, NE US",1.7832200896511994,13,-103.32222771535578,40.961955280898856,0.36292010389220086,Peetz Table
0.9565,1316.7,METERS,GHCND_USC00257830,41.2294,-103.0214,2018-09-30,1908-12-01,"SIDNEY 6 NNW, NE US",1.7832200896511994,13,-103.32222771535578,40.961955280898856,0.40252203927395963,Peetz Table
0.9988,1130.5,METERS,GHCND_USC00051996,40.86,-102.803,2018-10-17,1996-03-01,"CROOK, CO US",1.7832200896511994,13,-103.32222771535578,40.961955280898856,0.5291429860602427,Peetz Table
0.9804,545.6,METERS,GHCND_USW00013962,32.4105,-99.6822,2018-10-16,1946-08-01,"ABILENE REGIONAL AIRPORT, TX US",2.567836929097727,15,-100.17396452189782,32.253114850364945,0.5163355791760246,Horse Hollow
0.9411,594.1,METERS,GHCND_USC00414278,31.84555,-99.56068,2018-10-17,1953-07-01,"HORDS CREEK DAM, TX US",2.567836929097727,15,-100.17396452189782,32.253114850364945,0.7363606535200169,Horse Hollow
0.8222,598.6,METERS,GHCND_USC00416499,31.45389,-100.49333,2008-01-31,1975-12-01,"O C FISHER DAM, TX US",2.567836929097727,15,-100.17396452189782,32.253114850364945,0.8606710579799367,Horse Hollow
0.8793,786.4,METERS,GHCND_USW00024012,46.7994,-102.7972,2018-10-16,1938-11-14,"DICKINSON THEODORE ROOSEVELT REGIONAL AIRPORT, ND US",3.0814043149172723,16,-102.75638931460675,46.65634826966293,0.14875923364516608,Brady Wind I
0.9498,749.8,METERS,GHCND_USC00322188,46.89138,-102.81055,2016-02-19,1893-01-01,"DICKINSON EXPERIMENTAL STATION, ND US",3.0814043149172723,16,-102.75638931460675,46.65634826966293,0.24119140554237115,Brady Wind I
0.995,824.5,METERS,GHCND_USW00094038,46.01389,-102.65472,2018-10-16,1996-07-01,"HETTINGER MUNICIPAL AIRPORT, ND US",3.0814043149172723,16,-102.75638931460675,46.65634826966293,0.6504531326628273,Brady Wind I
0.9704,414.5,METERS,GHCND_USW00013980,37.155,-98.0282,2018-10-17,1896-10-01,"ANTHONY, KS US",2.567836929097727,15,-98.25266602681995,37.371157398467425,0.31162319892546625,Flat Ridge 2
0.9843,467.9,METERS,GHCND_USW00003957,37.2839,-98.5528,2018-10-16,1998-02-05,"MEDICINE LODGE 1 E, KS US",2.567836929097727,15,-98.25266602681995,37.371157398467425,0.3125608027954674,Flat Ridge 2
0.9526,365.8,METERS,GHCND_USC00343740,36.7425,-98.133,2018-09-10,1946-03-12,"GREAT SALT PLAINS DAM, OK US",2.567836929097727,15,-98.25266602681995,37.371157398467425,0.6399453747177998,Flat Ridge 2
0.9084,502.9,METERS,GHCND_USC00253075,41.3594,-97.9761,2013-11-30,1901-03-01,"FULLERTON, NE US",2.567836929097727,15,-98.11013231355938,41.93217061016949,0.588243855005737,Prairie Breeze
0.9788,515.1,METERS,GHCND_USC00256396,42.3691,-97.5983,2013-07-31,2008-09-01,"OSMOND NUMBER 1, NE US",2.567836929097727,15,-98.11013231355938,41.93217061016949,0.6729633042753599,Prairie Breeze
1.0,472.7,METERS,GHCND_USW00014941,41.9855,-97.4352,2018-10-16,1945-10-01,"NORFOLK KARL STEFAN MEMORIAL AIRPORT, NE US",2.567836929097727,15,-98.11013231355938,41.93217061016949,0.6770359308827806,Prairie Breeze
0.9936,930.9,METERS,GHCND_USW00003024,35.695,-101.395,2018-10-16,1997-06-01,"BORGER HUTCHINSON CO AIRPORT, TX US",3.6976851779007265,17,-101.29317291452995,35.430908786324785,0.2830422662355795,Panhandle Wind 1
0.9952,894.9,METERS,GHCND_USC00418040,35.7048,-101.5492,2018-10-17,1993-10-01,"SANFORD DAM, TX US",3.6976851779007265,17,-101.29317291452995,35.430908786324785,0.3749216790514663,Panhandle Wind 1
0.9492,1098.5,METERS,GHCND_USW00023047,35.2295,-101.7042,2018-10-16,1943-03-01,"AMARILLO AIRPORT, TX US",3.6976851779007265,17,-101.29317291452995,35.430908786324785,0.4577212734829229,Panhandle Wind 1
0.9902,330.7,METERS,GHCND_USC00341750,35.0488,-97.9158,2018-10-15,1953-06-01,"CHICKASHA EXPERIMENT STATION, OK US",2.567836929097727,15,-97.80480764166661,34.700150966666676,0.3658899452740795,Rush Springs Wind Energy Center
0.9914,325.8,METERS,GHCND_USW00003950,34.5584,-98.4172,2018-10-16,1996-10-01,"LAWTON MUNICIPAL AIRPORT, OK US",2.567836929097727,15,-97.80480764166661,34.700150966666676,0.6285839141244843,Rush Springs Wind Energy Center
0.9213,391.7,METERS,GHCND_USW00013967,35.3889,-97.6006,2018-10-16,1941-12-14,"OKLAHOMA CITY WILL ROGERS WORLD AIRPORT, OK US",2.567836929097727,15,-97.80480764166661,34.700150966666676,0.7183842925848443,Rush Springs Wind Energy Center
0.9704,414.5,METERS,GHCND_USW00013980,37.155,-98.0282,2018-10-17,1896-10-01,"ANTHONY, KS US",2.567836929097727,15,-98.23042012500005,37.35392928124999,0.2836650099918462,Flat Ridge 2 Expansion
0.9843,467.9,METERS,GHCND_USW00003957,37.2839,-98.5528,2018-10-16,1998-02-05,"MEDICINE LODGE 1 E, KS US",2.567836929097727,15,-98.23042012500005,37.35392928124999,0.3298982934744815,Flat Ridge 2 Expansion
0.9526,365.8,METERS,GHCND_USC00343740,36.7425,-98.133,2018-09-10,1946-03-12,"GREAT SALT PLAINS DAM, OK US",2.567836929097727,15,-98.23042012500005,37.35392928124999,0.6191417016523,Flat Ridge 2 Expansion
0.9526,365.8,METERS,GHCND_USC00343740,36.7425,-98.133,2018-09-10,1946-03-12,"GREAT SALT PLAINS DAM, OK US",1.7832200896511994,13,-97.69635805714283,36.575608307142836,0.4674494875457766,Chisholm View
0.9995,304.8,METERS,GHCND_USW00013969,36.73667,-97.10194,2018-10-16,1948-01-01,"PONCA CITY MUNICIPAL AIRPORT, OK US",1.7832200896511994,13,-97.69635805714283,36.575608307142836,0.6158520078423656,Chisholm View
0.9704,414.5,METERS,GHCND_USW00013980,37.155,-98.0282,2018-10-17,1896-10-01,"ANTHONY, KS US",1.7832200896511994,13,-97.69635805714283,36.575608307142836,0.6676929000604325,Chisholm View
0.9843,467.9,METERS,GHCND_USW00003957,37.2839,-98.5528,2018-10-16,1998-02-05,"MEDICINE LODGE 1 E, KS US",2.567836929097727,15,-98.27077296666671,37.55616445000001,0.3920040538879483,Kingman Wind Energy Center
0.9704,414.5,METERS,GHCND_USW00013980,37.155,-98.0282,2018-10-17,1896-10-01,"ANTHONY, KS US",2.567836929097727,15,-98.27077296666671,37.55616445000001,0.46880119464577025,Kingman Wind Energy Center
0.4685,470.3,METERS,GHCND_USW00013986,38.06528,-97.86056,2018-10-15,1948-01-01,"HUTCHINSON MUNICIPAL AIRPORT, KS US",2.567836929097727,15,-98.27077296666671,37.55616445000001,0.6538144394805699,Kingman Wind Energy Center
0.9252,765.0,METERS,GHCND_USW00023041,32.2443,-101.4537,2018-10-17,1948-01-01,"BIG SPRING, TX US",3.6976851779007265,17,-100.933198625731,31.940820298245608,0.6025127467472009,Capricorn Ridge
0.8222,598.6,METERS,GHCND_USC00416499,31.45389,-100.49333,2008-01-31,1975-12-01,"O C FISHER DAM, TX US",3.6976851779007265,17,-100.933198625731,31.940820298245608,0.6561901578445304,Capricorn Ridge
0.2272,576.1,METERS,GHCND_USC00417944,31.37083,-100.49432,2018-10-17,1947-11-01,"SAN ANGELO WEATHER FORECAST OFFICE, TX US",3.6976851779007265,17,-100.933198625731,31.940820298245608,0.7193770834671068,Capricorn Ridge
0.8793,786.4,METERS,GHCND_USW00024012,46.7994,-102.7972,2018-10-16,1938-11-14,"DICKINSON THEODORE ROOSEVELT REGIONAL AIRPORT, ND US",3.0814043149172723,16,-102.79639871951215,46.602550378048754,0.1968512527589502,Brady Wind II
0.9498,749.8,METERS,GHCND_USC00322188,46.89138,-102.81055,2016-02-19,1893-01-01,"DICKINSON EXPERIMENTAL STATION, ND US",3.0814043149172723,16,-102.79639871951215,46.602550378048754,0.28917608693656605,Brady Wind II
0.995,824.5,METERS,GHCND_USW00094038,46.01389,-102.65472,2018-10-16,1996-07-01,"HETTINGER MUNICIPAL AIRPORT, ND US",3.0814043149172723,16,-102.79639871951215,46.602550378048754,0.6054699829447389,Brady Wind II
0.9667,1638.0,METERS,GHCND_USW00093010,39.275,-103.666,2018-10-16,1948-08-01,"LIMON, CO US",2.567836929097727,15,-103.64199904000003,39.39627012800001,0.12362236863148836,Limon I
0.293,1531.6,METERS,GHCND_USC00054172,39.1438,-103.4897,2018-10-17,1893-01-01,"HUGO 1 NW, CO US",2.567836929097727,15,-103.64199904000003,39.39627012800001,0.2948493905662245,Limon I
0.9996,1333.2,METERS,GHCND_USC00059213,40.075,-103.5677,2018-10-17,1993-06-01,"WOODROW 6 NNE, CO US",2.567836929097727,15,-103.64199904000003,39.39627012800001,0.682784436326759,Limon I
0.9743,266.1,METERS,GHCND_USC00112223,41.9342,-88.7756,2018-10-17,1966-03-01,"DE KALB, IL US",2.139864107581439,14,-88.885340524138,41.81195996551721,0.16427296998726443,Lee&DeKalb
0.9985,216.4,METERS,GHCND_USW00004808,41.77,-88.48139,2018-10-15,1998-10-08,"CHICAGO AURORA MUNICIPAL AIRPORT, IL US",2.139864107581439,14,-88.885340524138,41.81195996551721,0.4061239523317577,Lee&DeKalb
1.0,222.5,METERS,GHCND_USW00094822,42.1927,-89.093,2018-10-16,1951-01-01,"ROCKFORD GREATER ROCKFORD AIRPORT, IL US",2.139864107581439,14,-88.885340524138,41.81195996551721,0.43368817343021737,Lee&DeKalb
0.8602,503.2,METERS,GHCND_USW00024011,46.7825,-100.7572,2018-10-16,1936-07-01,"BISMARCK MUNICIPAL AIRPORT, ND US",2.567836929097727,15,-100.66761324324322,47.11941224324324,0.3486196303041321,Wilton Wind Energy Center II
0.9915,533.4,METERS,GHCND_USC00325479,46.8127,-100.9097,2018-09-04,1913-07-16,"MANDAN EXPERIMENT STATION, ND US",2.567836929097727,15,-100.66761324324322,47.11941224324324,0.39074083220507577,Wilton Wind Energy Center II
0.9203,577.0,METERS,GHCND_USC00328840,47.5213,-100.8883,2018-10-07,1912-09-01,"TURTLE LAKE, ND US",2.567836929097727,15,-100.66761324324322,47.11941224324324,0.45849363533074616,Wilton Wind Energy Center II
0.995,205.7,METERS,GHCND_USC00116344,40.1101,-87.9567,2018-10-17,2001-11-01,"OGDEN, IL US",2.139864107581439,14,-87.89377190298508,40.218929574626856,0.1257132519163381,California Ridge
0.7581,230.1,METERS,GHCND_USW00014806,40.313,-88.1598,2018-10-15,1893-01-01,"RANTOUL, IL US",2.139864107581439,14,-87.89377190298508,40.218929574626856,0.28217050400647276,California Ridge
0.9988,219.8,METERS,GHCND_USC00118740,40.084,-88.2404,2018-10-17,1902-08-01,"CHAMPAIGN 3 S, IL US",2.139864107581439,14,-87.89377190298508,40.218929574626856,0.37196374520800296,California Ridge
0.9936,930.9,METERS,GHCND_USW00003024,35.695,-101.395,2018-10-16,1997-06-01,"BORGER HUTCHINSON CO AIRPORT, TX US",3.0814043149172723,16,-100.53868121153849,35.65375534615386,0.8573114888668367,Miami
0.6758,667.8,METERS,GHCND_USW00013975,36.2967,-99.7689,2018-10-16,1904-05-01,"GAGE AIRPORT, OK US",3.0814043149172723,16,-100.53868121153849,35.65375534615386,1.0029660719819973,Miami
0.9952,894.9,METERS,GHCND_USC00418040,35.7048,-101.5492,2018-10-17,1993-10-01,"SANFORD DAM, TX US",3.0814043149172723,16,-100.53868121153849,35.65375534615386,1.011807184457588,Miami
0.5464,585.8,METERS,GHCND_USW00003932,35.3568,-99.2042,2018-10-16,1958-08-17,"CLINTON SHERMAN AIRPORT, OK US",3.0814043149172723,16,-99.68286154545456,35.47865634848487,0.4939289875710987,Elk City II
0.9498,464.8,METERS,GHCND_USC00340184,34.8847,-99.2964,2018-10-17,1945-08-01,"ALTUS DAM, OK US",3.0814043149172723,16,-99.68286154545456,35.47865634848487,0.7086160243888056,Elk City II
0.995,474.3,METERS,GHCND_USW00093986,34.9894,-99.0525,2018-10-16,1910-01-01,"HOBART MUNICIPAL AIRPORT, OK US",3.0814043149172723,16,-99.68286154545456,35.47865634848487,0.7979520364787647,Elk City II
0.996,951.9,METERS,GHCND_USW00003030,36.68167,-101.50528,2018-10-16,1998-12-01,"GUYMON MUNICIPAL AIRPORT, OK US",3.0814043149172723,16,-100.84378238888893,36.51791281481483,0.6814657036164232,Balko Wind
0.8825,999.1,METERS,GHCND_USC00343628,36.5913,-101.618,2018-10-14,1910-02-15,"GOODWELL RESEARCH STATION, OK US",3.0814043149172723,16,-100.84378238888893,36.51791281481483,0.7776879761857795,Balko Wind
0.9936,930.9,METERS,GHCND_USW00003024,35.695,-101.395,2018-10-16,1997-06-01,"BORGER HUTCHINSON CO AIRPORT, TX US",3.0814043149172723,16,-100.84378238888893,36.51791281481483,0.9904677458582173,Balko Wind
0.293,1531.6,METERS,GHCND_USC00054172,39.1438,-103.4897,2018-10-17,1893-01-01,"HUGO 1 NW, CO US",2.567836929097727,15,-103.39627527966095,39.354389305084744,0.2303823643131233,Limon III
0.9667,1638.0,METERS,GHCND_USW00093010,39.275,-103.666,2018-10-16,1948-08-01,"LIMON, CO US",2.567836929097727,15,-103.39627527966095,39.354389305084744,0.28116558559648297,Limon III
0.9996,1333.2,METERS,GHCND_USC00059213,40.075,-103.5677,2018-10-17,1993-06-01,"WOODROW 6 NNE, CO US",2.567836929097727,15,-103.39627527966095,39.354389305084744,0.7407200607311591,Limon III
0.8421,275.5,METERS,GHCND_USC00237862,39.3903,-94.5553,2018-10-17,1981-11-01,"SMITHVILLE LAKE, MO US",2.139864107581439,14,-94.45409846078431,39.833764558823525,0.4548654377639238,Osborn
0.667,249.3,METERS,GHCND_USW00013993,39.7736,-94.9233,2018-10-16,1948-01-01,"ST JOSEPH ROSECRANS MEMORIAL AIRPORT, MO US",2.139864107581439,14,-94.45409846078431,39.833764558823525,0.47304318887475894,Osborn
1.0,306.3,METERS,GHCND_USW00003947,39.2972,-94.7306,2018-10-16,1972-10-01,"KANSAS CITY INTERNATIONAL AIRPORT, MO US",2.139864107581439,14,-94.45409846078431,39.833764558823525,0.603617947856201,Osborn
0.9867,460.9,METERS,GHCND_USC00148946,38.9667,-98.489,2018-10-17,1964-08-01,"WILSON LAKE, KS US",2.139864107581439,14,-98.33307847014929,38.84524076119404,0.19764581999706227,Post Rock
0.8924,454.8,METERS,GHCND_USC00144178,38.6078,-97.9596,2018-10-17,1941-03-01,"KANOPOLIS LAKE, KS US",2.139864107581439,14,-98.33307847014929,38.84524076119404,0.44256556886123016,Post Rock
0.9887,568.1,METERS,GHCND_USW00093997,38.87611,-98.80917,2018-10-15,1949-09-01,"RUSSELL MUNICIPAL AIRPORT, KS US",2.139864107581439,14,-98.33307847014929,38.84524076119404,0.4770912435793017,Post Rock
0.9936,930.9,METERS,GHCND_USW00003024,35.695,-101.395,2018-10-16,1997-06-01,"BORGER HUTCHINSON CO AIRPORT, TX US",4.437222213480871,18,-101.19392462711865,35.25837463559323,0.4807005454778684,Grandview I
0.9492,1098.5,METERS,GHCND_USW00023047,35.2295,-101.7042,2018-10-16,1943-03-01,"AMARILLO AIRPORT, TX US",4.437222213480871,18,-101.19392462711865,35.25837463559323,0.5110916754847852,Grandview I
0.9952,894.9,METERS,GHCND_USC00418040,35.7048,-101.5492,2018-10-17,1993-10-01,"SANFORD DAM, TX US",4.437222213480871,18,-101.19392462711865,35.25837463559323,0.570540267257011,Grandview I
0.9285,484.6,METERS,GHCND_USC00341445,36.06167,-98.59,2002-08-31,1943-05-06,"CANTON, OK US",2.567836929097727,15,-98.99346985470085,36.10693735897436,0.4060013022649491,Seiling
0.9749,618.7,METERS,GHCND_USC00343304,36.54417,-99.535,2012-03-31,1940-07-01,"FORT SUPPLY, OK US",2.567836929097727,15,-98.99346985470085,36.10693735897436,0.696008103865157,Seiling
0.5464,585.8,METERS,GHCND_USW00003932,35.3568,-99.2042,2018-10-16,1958-08-17,"CLINTON SHERMAN AIRPORT, OK US",2.567836929097727,15,-98.99346985470085,36.10693735897436,0.7791747246072829,Seiling
0.9989,201.2,METERS,GHCND_USW00014845,43.53306,-84.07972,2018-10-16,1898-01-01,"SAGINAW MBS INTERNATIONAL AIRPORT, MI US",2.567836929097727,15,-84.52403298611108,43.39106588888888,0.4664508090004631,Gratiot County
0.8192,236.2,METERS,GHCND_USW00014828,43.9758,-84.4908,2018-10-17,1892-12-01,"GLADWIN, MI US",2.567836929097727,15,-84.52403298611108,43.39106588888888,0.5856777373801814,Gratiot County
0.9327,261.8,METERS,GHCND_USW00014836,42.7761,-84.5997,2018-10-16,1948-01-01,"LANSING CAPITAL CITY AIRPORT, MI US",2.567836929097727,15,-84.52403298611108,43.39106588888888,0.6196035357289036,Gratiot County
0.9862,1351.8,METERS,GHCND_USC00291963,34.5988,-103.2161,2018-10-17,1949-06-21,"CLOVIS 13 N, NM US",3.0814043149172723,16,-102.71050737499998,34.71607395833335,0.5190154947182047,Mariah North Wind
0.473,1165.9,METERS,GHCND_USC00299284,35.36,-103.4433,2015-09-30,1965-02-01,"UTE DAM, NM US",3.0814043149172723,16,-102.71050737499998,34.71607395833335,0.9755130846846177,Mariah North Wind
0.6399,1239.0,METERS,GHCND_USW00023048,35.18222,-103.60306,2018-10-15,1948-01-01,"TUCUMCARI MUNICIPAL AIRPORT, NM US",3.0814043149172723,16,-102.71050737499998,34.71607395833335,1.0069470296673602,Mariah North Wind
0.9937,368.8,METERS,GHCND_USC00131442,42.7572,-95.5377,2018-10-17,1921-11-13,"CHEROKEE, IA US",2.567836929097727,15,-95.41686615671637,42.31372873880598,0.459638528832939,Ida Grove
0.9907,426.7,METERS,GHCND_USC00131277,42.0633,-95.8363,2018-01-16,1948-07-01,"CASTANA EXPERIMENTAL FARM, IA US",2.567836929097727,15,-95.41686615671637,42.31372873880598,0.4885072180752584,Ida Grove
0.9899,387.1,METERS,GHCND_USC00133632,41.6452,-95.3339,2016-02-24,1899-02-01,"HARLAN, IA US",2.567836929097727,15,-95.41686615671637,42.31372873880598,0.6736572257237297,Ida Grove
0.9197,880.9,METERS,GHCND_USC00142980,37.993,-100.8121,2018-10-17,1948-08-01,"GARDEN CITY EXPERIMENTAL STATION, KS US",3.0814043149172723,16,-101.08983866666665,37.63753567407406,0.45110270888984255,Buffalo Dunes
0.9407,878.4,METERS,GHCND_USW00023064,37.92722,-100.72472,2018-10-16,1947-03-01,"GARDEN CITY REGIONAL AIRPORT, KS US",3.0814043149172723,16,-101.08983866666665,37.63753567407406,0.4660779435197461,Buffalo Dunes
0.996,951.9,METERS,GHCND_USW00003030,36.68167,-101.50528,2018-10-16,1998-12-01,"GUYMON MUNICIPAL AIRPORT, OK US",3.0814043149172723,16,-101.08983866666665,37.63753567407406,1.0422431042299345,Buffalo Dunes
0.9953,1277.7,METERS,GHCND_USW00003026,39.24472,-102.28417,2018-10-16,1997-06-01,"BURLINGTON CARSON AIRPORT, CO US",2.567836929097727,15,-102.14291727586209,39.36857622988506,0.187863508318464,Carousel
0.939,1132.9,METERS,GHCND_USC00050834,39.6567,-102.1193,2018-07-09,1949-06-01,"BONNY DAM 2 NE, CO US",2.567836929097727,15,-102.14291727586209,39.36857622988506,0.2890900943034797,Carousel
0.897,1114.3,METERS,GHCND_USW00023065,39.36722,-101.69333,2018-10-16,1895-06-01,"GOODLAND RENNER FIELD, KS US",2.567836929097727,15,-102.14291727586209,39.36857622988506,0.449589321466372,Carousel
0.9843,467.9,METERS,GHCND_USW00003957,37.2839,-98.5528,2018-10-16,1998-02-05,"MEDICINE LODGE 1 E, KS US",3.0814043149172723,16,-98.60997859504135,37.5875376694215,0.3089744747104873,Ninnescah
0.9704,414.5,METERS,GHCND_USW00013980,37.155,-98.0282,2018-10-17,1896-10-01,"ANTHONY, KS US",3.0814043149172723,16,-98.60997859504135,37.5875376694215,0.7249518391706288,Ninnescah
0.4685,470.3,METERS,GHCND_USW00013986,38.06528,-97.86056,2018-10-15,1948-01-01,"HUTCHINSON MUNICIPAL AIRPORT, KS US",3.0814043149172723,16,-98.60997859504135,37.5875376694215,0.8887440379661208,Ninnescah
0.988,519.1,METERS,GHCND_USW00094943,43.76667,-99.31833,2014-06-30,1998-02-01,"CHAMBERLAIN MUNICIPAL AIRPORT, SD US",2.567836929097727,15,-98.76650550877197,43.899412052631575,0.5675656100011005,Crow Lake (2010)
0.8893,445.3,METERS,GHCND_USC00394766,44.0644,-99.4602,2018-10-02,1972-02-01,"LAKE SHARPE PROJECT, SD US",2.567836929097727,15,-98.76650550877197,43.899412052631575,0.713044928414024,Crow Lake (2010)
0.9998,390.1,METERS,GHCND_USW00014936,44.3981,-98.2231,2018-10-16,1881-07-01,"HURON REGIONAL AIRPORT, SD US",2.567836929097727,15,-98.76650550877197,43.899412052631575,0.7375494666896953,Crow Lake (2010)
0.9891,612.6,METERS,GHCND_USC00143527,38.8586,-99.3358,2018-10-17,1892-07-01,"HAYS 1 S, KS US",2.139864107581439,14,-99.45016817857147,38.996659107142854,0.17927743119209505,Buckeye
0.9731,650.7,METERS,GHCND_USC00141383,38.7978,-99.723,2018-10-17,1949-08-01,"CEDAR BLUFF DAM, KS US",2.139864107581439,14,-99.45016817857147,38.996659107142854,0.3376124216874415,Buckeye
0.9412,567.8,METERS,GHCND_USC00148648,39.4031,-99.4192,2018-08-31,1953-09-01,"WEBSTER DAM, KS US",2.139864107581439,14,-99.45016817857147,38.996659107142854,0.40761897339372005,Buckeye
0.9899,387.1,METERS,GHCND_USC00133632,41.6452,-95.3339,2016-02-24,1899-02-01,"HARLAN, IA US",2.567836929097727,15,-95.14382198113204,42.135792981132056,0.5261284314621341,Victory(Carroll)
0.9907,426.7,METERS,GHCND_USC00131277,42.0633,-95.8363,2018-01-16,1948-07-01,"CASTANA EXPERIMENTAL FARM, IA US",2.567836929097727,15,-95.14382198113204,42.135792981132056,0.6962621912244743,Victory(Carroll)
0.9937,368.8,METERS,GHCND_USC00131442,42.7572,-95.5377,2018-10-17,1921-11-13,"CHEROKEE, IA US",2.567836929097727,15,-95.14382198113204,42.135792981132056,0.7357218066944161,Victory(Carroll)
1.0,180.4,METERS,GHCND_USW00014923,41.46528,-90.52333,2018-10-16,1943-05-24,"MOLINE QUAD CITY INTERNATIONAL AIRPORT, IL US",2.567836929097727,15,-90.15054191729328,41.19727797744361,0.45912529738892266,Bishop Hill I
0.9944,228.6,METERS,GHCND_USW00094982,41.61389,-90.59139,2018-10-16,1996-07-01,"DAVENPORT MUNICIPAL AIRPORT, IA US",2.567836929097727,15,-90.15054191729328,41.19727797744361,0.6065580016492368,Bishop Hill I
0.9999,198.1,METERS,GHCND_USW00014842,40.6675,-89.6839,2018-10-16,1943-05-04,"PEORIA INTERNATIONAL AIRPORT, IL US",2.567836929097727,15,-90.15054191729328,41.19727797744361,0.705988232451082,Bishop Hill I
0.9989,201.2,METERS,GHCND_USW00014845,43.53306,-84.07972,2018-10-16,1898-01-01,"SAGINAW MBS INTERNATIONAL AIRPORT, MI US",2.139864107581439,14,-83.48464817741936,43.60188880645162,0.5990391294623365,Cross Winds Energy Park
0.9098,178.6,METERS,GHCND_USC00202423,44.2838,-83.5036,2018-10-17,1890-04-01,"EAST TAWAS, MI US",2.139864107581439,14,-83.48464817741936,43.60188880645162,0.6821744992783775,Cross Winds Energy Park
1.0,234.7,METERS,GHCND_USW00014826,42.9666,-83.7494,2018-10-16,1948-05-02,"FLINT BISHOP INTERNATIONAL AIRPORT, MI US",2.139864107581439,14,-83.48464817741936,43.60188880645162,0.6882480622293761,Cross Winds Energy Park
0.988,519.1,METERS,GHCND_USW00094943,43.76667,-99.31833,2014-06-30,1998-02-01,"CHAMBERLAIN MUNICIPAL AIRPORT, SD US",2.567836929097727,15,-98.78290541860467,43.89919323255815,0.5515812628525634,Crow Lake (2011)
0.8893,445.3,METERS,GHCND_USC00394766,44.0644,-99.4602,2018-10-02,1972-02-01,"LAKE SHARPE PROJECT, SD US",2.567836929097727,15,-98.78290541860467,43.89919323255815,0.6971522258417177,Crow Lake (2011)
0.9998,390.1,METERS,GHCND_USW00014936,44.3981,-98.2231,2018-10-16,1881-07-01,"HURON REGIONAL AIRPORT, SD US",2.567836929097727,15,-98.78290541860467,43.89919323255815,0.7498600331384692,Crow Lake (2011)
0.9788,515.1,METERS,GHCND_USC00256396,42.3691,-97.5983,2013-07-31,2008-09-01,"OSMOND NUMBER 1, NE US",3.0814043149172723,16,-97.98059155000003,41.994995849999995,0.5348838605236248,Prairie Breeze III
1.0,472.7,METERS,GHCND_USW00014941,41.9855,-97.4352,2018-10-16,1945-10-01,"NORFOLK KARL STEFAN MEMORIAL AIRPORT, NE US",3.0814043149172723,16,-97.98059155000003,41.994995849999995,0.545474210186569,Prairie Breeze III
0.9084,502.9,METERS,GHCND_USC00253075,41.3594,-97.9761,2013-11-30,1901-03-01,"FULLERTON, NE US",3.0814043149172723,16,-97.98059155000003,41.994995849999995,0.6356117199663786,Prairie Breeze III
0.9492,1098.5,METERS,GHCND_USW00023047,35.2295,-101.7042,2018-10-16,1943-03-01,"AMARILLO AIRPORT, TX US",3.0814043149172723,16,-102.25688922388059,34.76593295522388,0.7213596767190384,Hereford 1
0.9862,1351.8,METERS,GHCND_USC00291963,34.5988,-103.2161,2018-10-17,1949-06-21,"CLOVIS 13 N, NM US",3.0814043149172723,16,-102.25688922388059,34.76593295522388,0.9736625379182778,Hereford 1
0.5731,989.1,METERS,GHCND_USC00415410,33.6897,-101.8219,2018-10-17,1911-03-01,"LUBBOCK 9 N, TX US",3.0814043149172723,16,-102.25688922388059,34.76593295522388,1.1608156609910831,Hereford 1
0.7781,700.1,METERS,GHCND_USC00418566,33.47917,-100.87611,2018-10-16,1911-05-01,"SPUR, TX US",3.0814043149172723,16,-101.1562050952381,34.02629312698413,0.6146519165001647,Old Settler Wind
0.5731,989.1,METERS,GHCND_USC00415410,33.6897,-101.8219,2018-10-17,1911-03-01,"LUBBOCK 9 N, TX US",3.0814043149172723,16,-101.1562050952381,34.02629312698413,0.7459521696187473,Old Settler Wind
0.981,991.8,METERS,GHCND_USW00023042,33.6656,-101.8231,2018-10-16,1945-08-10,"LUBBOCK INTERNATIONAL AIRPORT, TX US",3.0814043149172723,16,-101.1562050952381,34.02629312698413,0.758187540026199,Old Settler Wind
0.6632,598.0,METERS,GHCND_USC00327585,47.4914,-101.3775,2018-10-09,1948-09-01,"RIVERDALE, ND US",1.4860167413759995,12,-101.21019890625,47.161170250000005,0.37019095579849604,Oliver II
0.9915,533.4,METERS,GHCND_USC00325479,46.8127,-100.9097,2018-09-04,1913-07-16,"MANDAN EXPERIMENT STATION, ND US",1.4860167413759995,12,-101.21019890625,47.161170250000005,0.4601424864023228,Oliver II
0.9203,577.0,METERS,GHCND_USC00328840,47.5213,-100.8883,2018-10-07,1912-09-01,"TURTLE LAKE, ND US",1.4860167413759995,12,-101.21019890625,47.161170250000005,0.48302416366057904,Oliver II
0.9098,178.6,METERS,GHCND_USC00202423,44.2838,-83.5036,2018-10-17,1890-04-01,"EAST TAWAS, MI US",2.567836929097727,15,-83.30756461363637,43.731447045454544,0.5861089140269344,Brookfield Wind Park
0.9637,179.8,METERS,GHCND_USW00094898,44.02194,-82.79306,2018-10-15,1999-06-24,"PORT HOPE, MI US",2.567836929097727,15,-83.30756461363637,43.731447045454544,0.5908478265117552,Brookfield Wind Park
0.8035,256.6,METERS,GHCND_USC00203527,44.3127,-83.8272,2009-09-30,2002-02-01,"HALE 5 SSW, MI US",2.567836929097727,15,-83.30756461363637,43.731447045454544,0.7796639865538885,Brookfield Wind Park
0.996,951.9,METERS,GHCND_USW00003030,36.68167,-101.50528,2018-10-16,1998-12-01,"GUYMON MUNICIPAL AIRPORT, OK US",3.6976851779007265,17,-101.03028548979589,36.42180519727892,0.541432821703033,Palo Duro
0.8825,999.1,METERS,GHCND_USC00343628,36.5913,-101.618,2018-10-14,1910-02-15,"GOODWELL RESEARCH STATION, OK US",3.6976851779007265,17,-101.03028548979589,36.42180519727892,0.611667257300823,Palo Duro
0.9936,930.9,METERS,GHCND_USW00003024,35.695,-101.395,2018-10-16,1997-06-01,"BORGER HUTCHINSON CO AIRPORT, TX US",3.6976851779007265,17,-101.03028548979589,36.42180519727892,0.8131804650537755,Palo Duro
1.0,180.4,METERS,GHCND_USW00014923,41.46528,-90.52333,2018-10-16,1943-05-24,"MOLINE QUAD CITY INTERNATIONAL AIRPORT, IL US",2.567836929097727,15,-90.14768795999998,41.2341649,0.4410454984050768,Bishop Hill II
0.9944,228.6,METERS,GHCND_USW00094982,41.61389,-90.59139,2018-10-16,1996-07-01,"DAVENPORT MUNICIPAL AIRPORT, IA US",2.567836929097727,15,-90.14768795999998,41.2341649,0.5840056950665675,Bishop Hill II
0.9999,198.1,METERS,GHCND_USW00014842,40.6675,-89.6839,2018-10-16,1943-05-04,"PEORIA INTERNATIONAL AIRPORT, IL US",2.567836929097727,15,-90.14768795999998,41.2341649,0.7322625080754648,Bishop Hill II
0.9932,497.4,METERS,GHCND_USC00391076,44.3252,-96.7686,2018-10-16,1893-01-01,"BROOKINGS 2 NE, SD US",2.139864107581439,14,-96.41857516999998,44.30642763999998,0.35052786353800164,Minn-Dakota
0.9571,501.1,METERS,GHCND_USC00395090,43.9905,-97.0925,2018-10-17,1961-10-01,"MADISON 2 SE, SD US",2.139864107581439,14,-96.41857516999998,44.30642763999998,0.7443016526963468,Minn-Dakota
0.9561,435.9,METERS,GHCND_USC00397666,43.5877,-96.73,2018-10-17,2011-01-01,"SIOUX FALLS WEATHER FORECAST OFFICE AIRPORT, SD US",2.139864107581439,14,-96.41857516999998,44.30642763999998,0.783297418124487,Minn-Dakota
0.8412,570.0,METERS,GHCND_USC00355734,45.4825,-120.7236,2018-10-11,1897-11-01,"MORO, OR US",2.567836929097727,15,-120.56081076923078,45.558853653846164,0.1798060458107406,Klondike IIIA
0.9975,71.6,METERS,GHCND_USW00024219,45.6194,-121.1661,2018-10-15,1948-07-01,"DALLESPORT AIRPORT, WA US",2.567836929097727,15,-120.56081076923078,45.558853653846164,0.6083098823114494,Klondike IIIA
0.9283,253.0,METERS,GHCND_USC00456768,46.2014,-119.758,2018-10-17,1925-07-01,"PROSSER, WA US",2.567836929097727,15,-120.56081076923078,45.558853653846164,1.0282854361258722,Klondike IIIA
0.9945,1408.8,METERS,GHCND_USC00057866,37.36944,-102.74278,2002-05-31,1956-09-01,"SPRINGFIELD 7 WSW, CO US",1.2383472844799996,11,-102.63663962962956,37.70066388888889,0.3478146673058164,Colorado Green Wind Project (Lamar)
0.987,1129.0,METERS,GHCND_USW00003013,38.07,-102.68806,2018-10-16,1996-07-01,"LAMAR MUNICIPAL AIRPORT, CO US",1.2383472844799996,11,-102.63663962962956,37.70066388888889,0.37289840098840765,Colorado Green Wind Project (Lamar)
0.9991,1335.9,METERS,GHCND_USW00003028,37.28333,-102.61389,2018-10-16,1998-07-01,"SPRINGFIELD COMANCHE NATIONAL GRASSLAND, CO US",1.2383472844799996,11,-102.63663962962956,37.70066388888889,0.41795349078983296,Colorado Green Wind Project (Lamar)
0.6424,181.1,METERS,GHCND_USW00014834,41.5,-88.16667,2018-10-17,1893-11-01,"JOLIET, IL US",2.567836929097727,15,-88.05078999029128,41.00303537864077,0.5102960038377903,Pilot Hill
0.7581,230.1,METERS,GHCND_USW00014806,40.313,-88.1598,2018-10-15,1893-01-01,"RANTOUL, IL US",2.567836929097727,15,-88.05078999029128,41.00303537864077,0.6985928757098803,Pilot Hill
0.9573,189.0,METERS,GHCND_USC00111577,41.7372,-87.7775,2018-10-16,1928-02-29,"CHICAGO MIDWAY AIRPORT 3 SW, IL US",2.567836929097727,15,-88.05078999029128,41.00303537864077,0.7833805652739623,Pilot Hill
0.9902,330.7,METERS,GHCND_USC00341750,35.0488,-97.9158,2018-10-15,1953-06-01,"CHICKASHA EXPERIMENT STATION, OK US",2.139864107581439,14,-97.9837017903226,35.27995458064515,0.2409213425212682,Minco Wind
0.9213,391.7,METERS,GHCND_USW00013967,35.3889,-97.6006,2018-10-16,1941-12-14,"OKLAHOMA CITY WILL ROGERS WORLD AIRPORT, OK US",2.139864107581439,14,-97.9837017903226,35.27995458064515,0.3982914587921557,Minco Wind
0.9875,395.3,METERS,GHCND_USW00003954,35.53417,-97.64694,2018-10-16,1996-08-01,"OKLAHOMA CITY WILEY POST AIRPORT, OK US",2.139864107581439,14,-97.9837017903226,35.27995458064515,0.42194073382294267,Minco Wind
0.9285,484.6,METERS,GHCND_USC00341445,36.06167,-98.59,2002-08-31,1943-05-06,"CANTON, OK US",3.0814043149172723,16,-98.69177532478635,35.97820294017095,0.1316243397395475,Mammoth Plains
0.5464,585.8,METERS,GHCND_USW00003932,35.3568,-99.2042,2018-10-16,1958-08-17,"CLINTON SHERMAN AIRPORT, OK US",3.0814043149172723,16,-98.69177532478635,35.97820294017095,0.8054319721869256,Mammoth Plains
0.9526,365.8,METERS,GHCND_USC00343740,36.7425,-98.133,2018-09-10,1946-03-12,"GREAT SALT PLAINS DAM, OK US",3.0814043149172723,16,-98.69177532478635,35.97820294017095,0.9467733938242144,Mammoth Plains
0.9252,765.0,METERS,GHCND_USW00023041,32.2443,-101.4537,2018-10-17,1948-01-01,"BIG SPRING, TX US",3.0814043149172723,16,-101.44834114925372,32.48637265671642,0.24213196486846789,Gunsight
0.9964,694.9,METERS,GHCND_USC00414967,33.06417,-101.04889,2018-10-17,1994-05-01,"LAKE ALAN HENRY, TX US",3.0814043149172723,16,-101.44834114925372,32.48637265671642,0.702432196404521,Gunsight
1.0,872.3,METERS,GHCND_USW00023023,31.9475,-102.2086,2018-10-16,1930-06-01,"MIDLAND INTERNATIONAL AIRPORT, TX US",3.0814043149172723,16,-101.44834114925372,32.48637265671642,0.9318676195118428,Gunsight
0.9973,597.7,METERS,GHCND_USW00094949,40.6005,-98.4258,2018-10-16,1996-07-03,"HASTINGS MUNICIPAL AIRPORT, NE US",2.139864107581439,14,-98.42182997500001,40.278643450000004,0.32188103373202687,Cottonwood Wind
0.9792,590.7,METERS,GHCND_USC00253660,40.6471,-98.3835,2018-10-17,1894-11-01,"HASTINGS 4 N, NE US",2.139864107581439,14,-98.42182997500001,40.278643450000004,0.37044488958737465,Cottonwood Wind
0.9627,545.0,METERS,GHCND_USC00251684,40.5208,-98.0536,2018-10-17,1971-07-01,"CLAY CENTER, NE US",2.139864107581439,14,-98.42182997500001,40.278643450000004,0.4407188550497991,Cottonwood Wind
0.9285,484.6,METERS,GHCND_USC00341445,36.06167,-98.59,2002-08-31,1943-05-06,"CANTON, OK US",2.567836929097727,15,-98.97953986440676,36.14897428813559,0.39920338762202023,Seiling 2
0.9749,618.7,METERS,GHCND_USC00343304,36.54417,-99.535,2012-03-31,1940-07-01,"FORT SUPPLY, OK US",2.567836929097727,15,-98.97953986440676,36.14897428813559,0.6817005302251674,Seiling 2
0.6758,667.8,METERS,GHCND_USW00013975,36.2967,-99.7689,2018-10-16,1904-05-01,"GAGE AIRPORT, OK US",2.567836929097727,15,-98.97953986440676,36.14897428813559,0.8030643247023416,Seiling 2
0.7781,700.1,METERS,GHCND_USC00418566,33.47917,-100.87611,2018-10-16,1911-05-01,"SPUR, TX US",2.567836929097727,15,-101.10492274666662,33.83904824666667,0.4264594065805063,Wake
0.5731,989.1,METERS,GHCND_USC00415410,33.6897,-101.8219,2018-10-17,1911-03-01,"LUBBOCK 9 N, TX US",2.567836929097727,15,-101.10492274666662,33.83904824666667,0.732366902979572,Wake
0.981,991.8,METERS,GHCND_USW00023042,33.6656,-101.8231,2018-10-16,1945-08-10,"LUBBOCK INTERNATIONAL AIRPORT, TX US",2.567836929097727,15,-101.10492274666662,33.83904824666667,0.7388253254167868,Wake
0.8059,271.3,METERS,GHCND_USC00128784,40.2233,-86.1086,2018-10-17,1971-08-01,"TIPTON 5 SW, IN US",1.7832200896511994,13,-85.86404207199998,40.34003668000001,0.27099083490975806,Wildcat I
0.9646,229.2,METERS,GHCND_USC00121303,39.9617,-86.0585,2018-10-16,1998-12-01,"CARMEL 3 E, IN US",1.7832200896511994,13,-85.86404207199998,40.34003668000001,0.4253851539434488,Wildcat I
0.9661,285.6,METERS,GHCND_USW00094895,40.23417,-85.39361,2018-10-16,1962-10-01,"MUNCIE DELAWARE CO AIRPORT, IN US",1.7832200896511994,13,-85.86404207199998,40.34003668000001,0.4821971467153444,Wildcat I
0.9936,930.9,METERS,GHCND_USW00003024,35.695,-101.395,2018-10-16,1997-06-01,"BORGER HUTCHINSON CO AIRPORT, TX US",3.6976851779007265,17,-101.10074829464286,35.33031078571428,0.4685960831269507,Grandview II (Colbeck's Corner)
0.9952,894.9,METERS,GHCND_USC00418040,35.7048,-101.5492,2018-10-17,1993-10-01,"SANFORD DAM, TX US",3.6976851779007265,17,-101.10074829464286,35.33031078571428,0.5842526026078652,Grandview II (Colbeck's Corner)
0.9492,1098.5,METERS,GHCND_USW00023047,35.2295,-101.7042,2018-10-16,1943-03-01,"AMARILLO AIRPORT, TX US",3.6976851779007265,17,-101.10074829464286,35.33031078571428,0.611814330671305,Grandview II (Colbeck's Corner)
0.9856,382.5,METERS,GHCND_USW00003981,34.34444,-98.98306,2018-10-16,1998-02-01,"FREDERICK MUNICIPAL AIRPORT, OK US",2.139864107581439,14,-99.07437594999999,34.112216409999995,0.24953235957865555,Electra Wind
0.619,386.8,METERS,GHCND_USC00348879,34.43972,-99.1375,2018-08-31,1938-07-03,"TIPTON 4 S, OK US",2.139864107581439,14,-99.07437594999999,34.112216409999995,0.33353147850134984,Electra Wind
0.8552,355.7,METERS,GHCND_USC00414982,33.7542,-99.1442,2018-10-17,1962-04-01,"LAKE KEMP, TX US",2.139864107581439,14,-99.07437594999999,34.112216409999995,0.3647617685389877,Electra Wind
0.9386,294.1,METERS,GHCND_USC00122825,40.2538,-85.1484,2018-10-17,1893-01-01,"FARMLAND 5 NNW, IN US",2.139864107581439,14,-84.94752180701755,40.32258831578949,0.21232965126200937,Bluff Point
0.9661,285.6,METERS,GHCND_USW00094895,40.23417,-85.39361,2018-10-16,1962-10-01,"MUNCIE DELAWARE CO AIRPORT, IN US",2.139864107581439,14,-84.94752180701755,40.32258831578949,0.4547663955102575,Bluff Point
0.9979,241.1,METERS,GHCND_USW00014827,40.9705,-85.2063,2018-10-16,1939-08-01,"FORT WAYNE INTERNATIONAL AIRPORT, IN US",2.139864107581439,14,-84.94752180701755,40.32258831578949,0.6976787969400848,Bluff Point
0.9012,492.3,METERS,GHCND_USC00324958,48.7622,-98.3447,2018-10-17,1897-04-01,"LANGDON EXPERIMENTAL FARM, ND US",2.139864107581439,14,-98.28708083333335,48.621941916666664,0.1516321150274596,Langdon (2008)
0.9929,298.0,METERS,GHCND_CA005021849,49.1833,-98.0833,2018-10-15,1999-12-01,"MORDEN CDA CS, CA",2.139864107581439,14,-98.28708083333335,48.621941916666664,0.5972014113828902,Langdon (2008)
0.9294,446.2,METERS,GHCND_USW00014912,48.1069,-98.868,2014-07-02,1921-01-01,"DEVILS LAKE KDLR, ND US",2.139864107581439,14,-98.28708083333335,48.621941916666664,0.776360260526219,Langdon (2008)
0.9965,291.1,METERS,GHCND_USW00094989,41.99056,-93.61889,2018-10-16,1996-10-01,"AMES MUNICIPAL AIRPORT, IA US",3.0814043149172723,16,-93.39163802999995,42.23525024999999,0.33394127674481505,Story II (aka Garden Wind)
0.9986,335.0,METERS,GHCND_USC00130200,42.0208,-93.7741,2018-10-10,1964-11-01,"AMES 8 WSW, IA US",3.0814043149172723,16,-93.39163802999995,42.23525024999999,0.4384815483248741,Story II (aka Garden Wind)
0.9938,296.9,METERS,GHCND_USW00094988,42.11056,-92.91611,2018-10-16,1996-10-01,"MARSHALLTOWN MUNICIPAL AIRPORT, IA US",3.0814043149172723,16,-93.39163802999995,42.23525024999999,0.4916040741904953,Story II (aka Garden Wind)
0.9731,650.7,METERS,GHCND_USC00141383,38.7978,-99.723,2018-10-17,1949-08-01,"CEDAR BLUFF DAM, KS US",2.567836929097727,15,-99.73485143243245,38.671292756756756,0.1270611626096141,Cedar Bluff
0.9891,612.6,METERS,GHCND_USC00143527,38.8586,-99.3358,2018-10-17,1892-07-01,"HAYS 1 S, KS US",2.567836929097727,15,-99.73485143243245,38.671292756756756,0.4408242836979037,Cedar Bluff
0.842,666.9,METERS,GHCND_USW00093990,39.37556,-99.82972,2018-10-16,1907-02-01,"HILL CITY MUNICIPAL AIRPORT, KS US",2.567836929097727,15,-99.73485143243245,38.671292756756756,0.7106281693106152,Cedar Bluff
0.82,1837.9,METERS,GHCND_USW00003068,38.76667,-104.3,2018-10-15,2006-05-01,"BULLSEYE AUXILIARY AIRFIELD USAFA, CO US",1.7832200896511994,13,-104.2294311172414,38.99758829655172,0.24146061147968745,Golden West Wind Farm
0.9927,1749.2,METERS,GHCND_USC00052668,38.74028,-104.39944,2018-10-16,2010-07-01,"ELLICOTT 7 S, CO US",1.7832200896511994,13,-104.2294311172414,38.99758829655172,0.3084000319247283,Golden West Wind Farm
0.9267,1884.0,METERS,GHCND_USW00093037,38.81,-104.6884,2018-10-16,1942-09-01,"COLORADO SPRINGS MUNICIPAL AIRPORT, CO US",1.7832200896511994,13,-104.2294311172414,38.99758829655172,0.4958243684449664,Golden West Wind Farm
0.9667,1638.0,METERS,GHCND_USW00093010,39.275,-103.666,2018-10-16,1948-08-01,"LIMON, CO US",2.567836929097727,15,-103.56474949600008,39.33490201599996,0.11764317269224545,Limon II
0.293,1531.6,METERS,GHCND_USC00054172,39.1438,-103.4897,2018-10-17,1893-01-01,"HUGO 1 NW, CO US",2.567836929097727,15,-103.56474949600008,39.33490201599996,0.20531051451183463,Limon II
0.9996,1333.2,METERS,GHCND_USC00059213,40.075,-103.5677,2018-10-17,1993-06-01,"WOODROW 6 NNE, CO US",2.567836929097727,15,-103.56474949600008,39.33490201599996,0.740103865274857,Limon II
0.4585,291.1,METERS,GHCND_USW00014748,42.15944,-76.89194,2018-10-15,1938-07-01,"ELMIRA CORNING REGIONAL AIRPORT, NY US",2.567836929097727,15,-76.89046049253733,41.75550283582089,0.4039398736784836,Armenia Mountain
0.5986,158.5,METERS,GHCND_USW00014778,41.2433,-76.9217,2018-10-16,1901-01-30,"WILLIAMSPORT REGIONAL AIRPORT, PA US",2.567836929097727,15,-76.89046049253733,41.75550283582089,0.5131546081343085,Armenia Mountain
0.968,292.6,METERS,GHCND_USC00304174,42.4491,-76.4491,2018-10-17,1893-01-01,"ITHACA CORNELL UNIVERSITY, NY US",2.567836929097727,15,-76.89046049253733,41.75550283582089,0.8221168472486716,Armenia Mountain
0.9902,330.7,METERS,GHCND_USC00341750,35.0488,-97.9158,2018-10-15,1953-06-01,"CHICKASHA EXPERIMENT STATION, OK US",2.139864107581439,14,-98.05861103174603,35.329236825396826,0.31470590052779923,Minco II
0.9875,395.3,METERS,GHCND_USW00003954,35.53417,-97.64694,2018-10-16,1996-08-01,"OKLAHOMA CITY WILEY POST AIRPORT, OK US",2.139864107581439,14,-98.05861103174603,35.329236825396826,0.4598593746263879,Minco II
0.9213,391.7,METERS,GHCND_USW00013967,35.3889,-97.6006,2018-10-16,1941-12-14,"OKLAHOMA CITY WILL ROGERS WORLD AIRPORT, OK US",2.139864107581439,14,-98.05861103174603,35.329236825396826,0.4618807201050801,Minco II
0.9283,253.0,METERS,GHCND_USC00456768,46.2014,-119.758,2018-10-17,1925-07-01,"PROSSER, WA US",2.567836929097727,15,-120.04861866379314,45.66467756034482,0.6103525087802273,South Hurlburt
0.8412,570.0,METERS,GHCND_USC00355734,45.4825,-120.7236,2018-10-11,1897-11-01,"MORO, OR US",2.567836929097727,15,-120.04861866379314,45.66467756034482,0.6991340842219044,South Hurlburt
0.9957,195.4,METERS,GHCND_USW00004113,45.82583,-119.26111,2018-10-16,1998-03-16,"HERMISTON MUNICIPAL AIRPORT, OR US",2.567836929097727,15,-120.04861866379314,45.66467756034482,0.803828342593158,South Hurlburt
0.9492,1098.5,METERS,GHCND_USW00023047,35.2295,-101.7042,2018-10-16,1943-03-01,"AMARILLO AIRPORT, TX US",3.0814043149172723,16,-102.24931347530868,34.712265246913574,0.7514522544802739,Jumbo Road
0.9862,1351.8,METERS,GHCND_USC00291963,34.5988,-103.2161,2018-10-17,1949-06-21,"CLOVIS 13 N, NM US",3.0814043149172723,16,-102.24931347530868,34.712265246913574,0.9734220803854154,Jumbo Road
0.5731,989.1,METERS,GHCND_USC00415410,33.6897,-101.8219,2018-10-17,1911-03-01,"LUBBOCK 9 N, TX US",3.0814043149172723,16,-102.24931347530868,34.712265246913574,1.1082968749711701,Jumbo Road
0.9252,765.0,METERS,GHCND_USW00023041,32.2443,-101.4537,2018-10-17,1948-01-01,"BIG SPRING, TX US",3.0814043149172723,16,-101.44557566949148,31.723092966101696,0.521270349177164,Rattlesnake
1.0,872.3,METERS,GHCND_USW00023023,31.9475,-102.2086,2018-10-16,1930-06-01,"MIDLAND INTERNATIONAL AIRPORT, TX US",3.0814043149172723,16,-101.44557566949148,31.723092966101696,0.7953393274640854,Rattlesnake
0.9977,914.7,METERS,GHCND_USW00003031,31.92056,-102.38667,2018-10-16,1998-12-01,"ODESSA SCHLEMEYER FIELD, TX US",3.0814043149172723,16,-101.44557566949148,31.723092966101696,0.9615881490492031,Rattlesnake
0.9098,178.6,METERS,GHCND_USC00202423,44.2838,-83.5036,2018-10-17,1890-04-01,"EAST TAWAS, MI US",2.567836929097727,15,-83.31563811363634,43.7703095909091,0.5468108182486212,Pheasant Run I
0.9637,179.8,METERS,GHCND_USW00094898,44.02194,-82.79306,2018-10-15,1999-06-24,"PORT HOPE, MI US",2.567836929097727,15,-83.31563811363634,43.7703095909091,0.5800049548331219,Pheasant Run I
0.8035,256.6,METERS,GHCND_USC00203527,44.3127,-83.8272,2009-09-30,2002-02-01,"HALE 5 SSW, MI US",2.567836929097727,15,-83.31563811363634,43.7703095909091,0.7455755625379259,Pheasant Run I
0.9974,347.5,METERS,GHCND_USC00214546,44.2395,-95.3152,2018-10-02,1961-01-01,"LAMBERTON SOUTHWEST RESEARCH AND OUTREACH CENTER, MN US",2.567836929097727,15,-95.95009946715325,43.87365570072993,0.7327614787227062,Fenton
0.9561,435.9,METERS,GHCND_USC00397666,43.5877,-96.73,2018-10-17,2011-01-01,"SIOUX FALLS WEATHER FORECAST OFFICE AIRPORT, SD US",2.567836929097727,15,-95.95009946715325,43.87365570072993,0.8306717184993082,Fenton
0.9989,435.3,METERS,GHCND_USW00014944,43.5778,-96.7539,2018-10-16,1932-01-01,"SIOUX FALLS FOSS FIELD, SD US",2.567836929097727,15,-95.95009946715325,43.87365570072993,0.856519639155527,Fenton
0.2393,150.6,METERS,GHCND_USW00012907,27.53333,-99.46667,2018-10-16,1965-03-15,"LAREDO INTERNATIONAL AIRPORT, TX US",3.0814043149172723,16,-98.98859915873014,27.3347443015873,0.5176755826640137,Javelina
0.7522,131.1,METERS,GHCND_USC00415060,27.5684,-99.4982,2018-10-16,1946-09-01,"LAREDO 2, TX US",3.0814043149172723,16,-98.98859915873014,27.3347443015873,0.5606139516848239,Javelina
0.9837,97.5,METERS,GHCND_USC00413060,26.558,-99.1372,2018-10-17,1962-07-01,"FALCON DAM, TX US",3.0814043149172723,16,-98.98859915873014,27.3347443015873,0.7908311577539512,Javelina
0.9863,215.8,METERS,GHCND_USC00129430,40.475,-86.9919,2018-10-17,1901-01-01,"WEST LAFAYETTE 6 NW, IN US",2.567836929097727,15,-87.01801395238098,40.60030842857142,0.1280005499206689,Meadow Lake III
0.926,182.6,METERS,GHCND_USW00014835,40.41222,-86.93694,2018-10-16,1944-01-01,"LAFAYETTE PURDUE UNIVERSITY AIRPORT, IN US",2.567836929097727,15,-87.01801395238098,40.60030842857142,0.20481758400376285,Meadow Lake III
0.8807,210.3,METERS,GHCND_USC00129670,41.0267,-86.5866,2018-05-31,1897-04-28,"WINAMAC 2 SSE, IN US",2.567836929097727,15,-87.01801395238098,40.60030842857142,0.6065704991955283,Meadow Lake III
0.9964,694.9,METERS,GHCND_USC00414967,33.06417,-101.04889,2018-10-17,1994-05-01,"LAKE ALAN HENRY, TX US",3.6976851779007265,17,-100.67412144578311,32.591459036144585,0.6032471504938317,Pyron (Roscoe III)
0.9252,765.0,METERS,GHCND_USW00023041,32.2443,-101.4537,2018-10-17,1948-01-01,"BIG SPRING, TX US",3.6976851779007265,17,-100.67412144578311,32.591459036144585,0.8533827503364013,Pyron (Roscoe III)
0.7781,700.1,METERS,GHCND_USC00418566,33.47917,-100.87611,2018-10-16,1911-05-01,"SPUR, TX US",3.6976851779007265,17,-100.67412144578311,32.591459036144585,0.910401082701324,Pyron (Roscoe III)
0.9653,584.0,METERS,GHCND_USW00023034,31.35167,-100.495,2018-10-16,1907-08-01,"SAN ANGELO MATHIS FIELD, TX US",3.6976851779007265,17,-100.66359450000006,31.12417291,0.2831590213797477,Langford
0.2272,576.1,METERS,GHCND_USC00417944,31.37083,-100.49432,2018-10-17,1947-11-01,"SAN ANGELO WEATHER FORECAST OFFICE, TX US",3.6976851779007265,17,-100.66359450000006,31.12417291,0.29915476997290025,Langford
0.8222,598.6,METERS,GHCND_USC00416499,31.45389,-100.49333,2008-01-31,1975-12-01,"O C FISHER DAM, TX US",3.6976851779007265,17,-100.66359450000006,31.12417291,0.3710840327989602,Langford
0.9974,347.5,METERS,GHCND_USC00214546,44.2395,-95.3152,2018-10-02,1961-01-01,"LAMBERTON SOUTHWEST RESEARCH AND OUTREACH CENTER, MN US",3.0814043149172723,16,-95.78957449253733,43.68387229850748,0.7305842195365988,Nobles
0.9943,407.8,METERS,GHCND_USW00014972,43.16444,-95.20167,2018-10-15,1996-10-01,"SPENCER MUNICIPAL AIRPORT, IA US",3.0814043149172723,16,-95.78957449253733,43.68387229850748,0.7845008636568512,Nobles
0.9561,435.9,METERS,GHCND_USC00397666,43.5877,-96.73,2018-10-17,2011-01-01,"SIOUX FALLS WEATHER FORECAST OFFICE AIRPORT, SD US",3.0814043149172723,16,-95.78957449253733,43.68387229850748,0.9453302312349092,Nobles
0.9977,771.1,METERS,GHCND_USW00094946,41.43333,-99.63333,2018-10-16,1999-07-31,"BROKEN BOW MUNICIPAL AIRPORT, NE US",3.6976851779007265,17,-99.55834302000001,41.458248860000005,0.07901896451624157,Broken Bow I
0.9985,629.1,METERS,GHCND_USW00094958,41.62333,-98.94833,2018-10-16,2000-08-01,"ORD EVELYN SHARP FIELD, NE US",3.6976851779007265,17,-99.55834302000001,41.458248860000005,0.6319554314611376,Broken Bow I
1.0,846.7,METERS,GHCND_USW00024023,41.1213,-100.6694,2018-10-16,1948-01-01,"NORTH PLATTE REGIONAL AIRPORT, NE US",3.6976851779007265,17,-99.55834302000001,41.458248860000005,1.1610263334920508,Broken Bow I
0.9561,435.9,METERS,GHCND_USC00397666,43.5877,-96.73,2018-10-17,2011-01-01,"SIOUX FALLS WEATHER FORECAST OFFICE AIRPORT, SD US",2.567836929097727,15,-96.28542052941172,43.79704254621849,0.4914012691536296,Prairie Rose
0.9989,435.3,METERS,GHCND_USW00014944,43.5778,-96.7539,2018-10-16,1932-01-01,"SIOUX FALLS FOSS FIELD, SD US",2.567836929097727,15,-96.28542052941172,43.79704254621849,0.5172429878065428,Prairie Rose
0.9932,497.4,METERS,GHCND_USC00391076,44.3252,-96.7686,2018-10-16,1893-01-01,"BROOKINGS 2 NE, SD US",2.567836929097727,15,-96.28542052941172,43.79704254621849,0.7158300753551372,Prairie Rose
0.9915,533.4,METERS,GHCND_USC00325479,46.8127,-100.9097,2018-09-04,1913-07-16,"MANDAN EXPERIMENT STATION, ND US",1.7832200896511994,13,-101.16538475,46.95033366666667,0.2903751325142626,Oliver III
0.8602,503.2,METERS,GHCND_USW00024011,46.7825,-100.7572,2018-10-16,1936-07-01,"BISMARCK MUNICIPAL AIRPORT, ND US",1.7832200896511994,13,-101.16538475,46.95033366666667,0.44134219127491736,Oliver III
0.6632,598.0,METERS,GHCND_USC00327585,47.4914,-101.3775,2018-10-09,1948-09-01,"RIVERDALE, ND US",1.7832200896511994,13,-101.16538475,46.95033366666667,0.5811588907943601,Oliver III
0.9989,201.2,METERS,GHCND_USW00014845,43.53306,-84.07972,2018-10-16,1898-01-01,"SAGINAW MBS INTERNATIONAL AIRPORT, MI US",2.567836929097727,15,-83.65310457333335,43.52597372000002,0.4266742758055614,Tuscola Bay Wind
1.0,234.7,METERS,GHCND_USW00014826,42.9666,-83.7494,2018-10-16,1948-05-02,"FLINT BISHOP INTERNATIONAL AIRPORT, MI US",2.567836929097727,15,-83.65310457333335,43.52597372000002,0.5676017686931296,Tuscola Bay Wind
0.9098,178.6,METERS,GHCND_USC00202423,44.2838,-83.5036,2018-10-17,1890-04-01,"EAST TAWAS, MI US",2.567836929097727,15,-83.65310457333335,43.52597372000002,0.7724327078174492,Tuscola Bay Wind
0.9401,310.0,METERS,GHCND_USW00013966,33.9786,-98.4928,2018-10-16,1897-01-01,"WICHITA FALLS MUNICIPAL AIRPORT, TX US",3.0814043149172723,16,-98.57871448000006,33.50355068,0.48275579158218906,Bobcat Bluff
0.8552,355.7,METERS,GHCND_USC00414982,33.7542,-99.1442,2018-10-17,1962-04-01,"LAKE KEMP, TX US",3.0814043149172723,16,-98.57871448000006,33.50355068,0.6185458390014956,Bobcat Bluff
0.9027,283.5,METERS,GHCND_USW00093985,32.7816,-98.0602,2018-10-16,1948-03-10,"MINERAL WELLS AIRPORT, TX US",3.0814043149172723,16,-98.57871448000006,33.50355068,0.8888588472430244,Bobcat Bluff
0.8412,570.0,METERS,GHCND_USC00355734,45.4825,-120.7236,2018-10-11,1897-11-01,"MORO, OR US",3.0814043149172723,16,-120.59184491250002,45.57371262500001,0.1602471405096538,Klondike III (Wasco)
0.9975,71.6,METERS,GHCND_USW00024219,45.6194,-121.1661,2018-10-15,1948-07-01,"DALLESPORT AIRPORT, WA US",3.0814043149172723,16,-120.59184491250002,45.57371262500001,0.5760696500892897,Klondike III (Wasco)
0.9752,152.4,METERS,GHCND_USC00354003,45.6847,-121.5175,2018-10-09,1893-01-01,"HOOD RIVER EXPERIMENT STATION, OR US",3.0814043149172723,16,-120.59184491250002,45.57371262500001,0.9322851164874273,Klondike III (Wasco)
0.9252,765.0,METERS,GHCND_USW00023041,32.2443,-101.4537,2018-10-17,1948-01-01,"BIG SPRING, TX US",2.567836929097727,15,-101.74782750000001,32.715948483050845,0.5558446525967664,Mesquite Creek
0.9964,694.9,METERS,GHCND_USC00414967,33.06417,-101.04889,2018-10-17,1994-05-01,"LAKE ALAN HENRY, TX US",2.567836929097727,15,-101.74782750000001,32.715948483050845,0.780878898275935,Mesquite Creek
1.0,872.3,METERS,GHCND_USW00023023,31.9475,-102.2086,2018-10-16,1930-06-01,"MIDLAND INTERNATIONAL AIRPORT, TX US",2.567836929097727,15,-101.74782750000001,32.715948483050845,0.89600466955222,Mesquite Creek
1.0,472.7,METERS,GHCND_USW00014941,41.9855,-97.4352,2018-10-16,1945-10-01,"NORFOLK KARL STEFAN MEMORIAL AIRPORT, NE US",3.0814043149172723,16,-97.92293826829267,41.93980214634147,0.48987438408854633,Prairie Breeze II
0.9788,515.1,METERS,GHCND_USC00256396,42.3691,-97.5983,2013-07-31,2008-09-01,"OSMOND NUMBER 1, NE US",3.0814043149172723,16,-97.92293826829267,41.93980214634147,0.5382254661346754,Prairie Breeze II
0.9084,502.9,METERS,GHCND_USC00253075,41.3594,-97.9761,2013-11-30,1901-03-01,"FULLERTON, NE US",3.0814043149172723,16,-97.92293826829267,41.93980214634147,0.5828317263120699,Prairie Breeze II
0.9964,694.9,METERS,GHCND_USC00414967,33.06417,-101.04889,2018-10-17,1994-05-01,"LAKE ALAN HENRY, TX US",3.0814043149172723,16,-100.88712794736841,32.78401978947369,0.32349822585219745,Camp Springs II (4Q07)
0.7781,700.1,METERS,GHCND_USC00418566,33.47917,-100.87611,2018-10-16,1911-05-01,"SPUR, TX US",3.0814043149172723,16,-100.88712794736841,32.78401978947369,0.6952375208221954,Camp Springs II (4Q07)
0.9252,765.0,METERS,GHCND_USW00023041,32.2443,-101.4537,2018-10-17,1948-01-01,"BIG SPRING, TX US",3.0814043149172723,16,-100.88712794736841,32.78401978947369,0.7824968638740273,Camp Springs II (4Q07)
0.9526,365.8,METERS,GHCND_USC00343740,36.7425,-98.133,2018-09-10,1946-03-12,"GREAT SALT PLAINS DAM, OK US",1.7832200896511994,13,-97.676079122807,36.447697017543874,0.5437696998544944,Breckinridge
0.9995,304.8,METERS,GHCND_USW00013969,36.73667,-97.10194,2018-10-16,1948-01-01,"PONCA CITY MUNICIPAL AIRPORT, OK US",1.7832200896511994,13,-97.676079122807,36.447697017543874,0.6427605440031108,Breckinridge
0.9892,325.5,METERS,GHCND_USW00053913,35.8517,-97.4142,2018-10-16,1998-04-09,"GUTHRIE MUNICIPAL AIRPORT, OK US",1.7832200896511994,13,-97.676079122807,36.447697017543874,0.650993947654935,Breckinridge
0.619,386.8,METERS,GHCND_USC00348879,34.43972,-99.1375,2018-08-31,1938-07-03,"TIPTON 4 S, OK US",2.139864107581439,14,-99.3768711882353,34.3048371882353,0.2747579637912798,Blue Summit
0.9856,382.5,METERS,GHCND_USW00003981,34.34444,-98.98306,2018-10-16,1998-02-01,"FREDERICK MUNICIPAL AIRPORT, OK US",2.139864107581439,14,-99.3768711882353,34.3048371882353,0.3957974667414795,Blue Summit
0.9498,464.8,METERS,GHCND_USC00340184,34.8847,-99.2964,2018-10-17,1945-08-01,"ALTUS DAM, OK US",2.139864107581439,14,-99.3768711882353,34.3048371882353,0.5854199284305842,Blue Summit
0.7581,230.1,METERS,GHCND_USW00014806,40.313,-88.1598,2018-10-15,1893-01-01,"RANTOUL, IL US",2.567836929097727,15,-88.01471818085109,40.467937563829786,0.21226017745461853,Pioneer Trail
0.995,205.7,METERS,GHCND_USC00116344,40.1101,-87.9567,2018-10-17,2001-11-01,"OGDEN, IL US",2.567836929097727,15,-88.01471818085109,40.467937563829786,0.36251045694835343,Pioneer Trail
0.9988,219.8,METERS,GHCND_USC00118740,40.084,-88.2404,2018-10-17,1902-08-01,"CHAMPAIGN 3 S, IL US",2.567836929097727,15,-88.01471818085109,40.467937563829786,0.4453541696379483,Pioneer Trail
0.8552,355.7,METERS,GHCND_USC00414982,33.7542,-99.1442,2018-10-17,1962-04-01,"LAKE KEMP, TX US",3.0814043149172723,16,-99.5414586,33.35810393,0.560987069319253,Horse Creek Wind
0.9804,545.6,METERS,GHCND_USW00013962,32.4105,-99.6822,2018-10-16,1946-08-01,"ABILENE REGIONAL AIRPORT, TX US",3.0814043149172723,16,-99.5414586,33.35810393,0.9579986168181054,Horse Creek Wind
0.9856,382.5,METERS,GHCND_USW00003981,34.34444,-98.98306,2018-10-16,1998-02-01,"FREDERICK MUNICIPAL AIRPORT, OK US",3.0814043149172723,16,-99.5414586,33.35810393,1.1334318856750984,Horse Creek Wind
0.9283,253.0,METERS,GHCND_USC00456768,46.2014,-119.758,2018-10-17,1925-07-01,"PROSSER, WA US",2.567836929097727,15,-120.00648503448274,45.581093250000016,0.668225468279555,Horseshoe Bend
0.8412,570.0,METERS,GHCND_USC00355734,45.4825,-120.7236,2018-10-11,1897-11-01,"MORO, OR US",2.567836929097727,15,-120.00648503448274,45.581093250000016,0.7238608310403308,Horseshoe Bend
0.9957,195.4,METERS,GHCND_USW00004113,45.82583,-119.26111,2018-10-16,1998-03-16,"HERMISTON MUNICIPAL AIRPORT, OR US",2.567836929097727,15,-120.00648503448274,45.581093250000016,0.7845253462002953,Horseshoe Bend
0.9863,215.8,METERS,GHCND_USC00129430,40.475,-86.9919,2018-10-17,1901-01-01,"WEST LAFAYETTE 6 NW, IN US",2.567836929097727,15,-87.44825459398498,40.56063995488723,0.46432070525046065,Fowler Ridge II
0.926,182.6,METERS,GHCND_USW00014835,40.41222,-86.93694,2018-10-16,1944-01-01,"LAFAYETTE PURDUE UNIVERSITY AIRPORT, IN US",2.567836929097727,15,-87.44825459398498,40.56063995488723,0.5324200381566699,Fowler Ridge II
0.995,205.7,METERS,GHCND_USC00116344,40.1101,-87.9567,2018-10-17,2001-11-01,"OGDEN, IL US",2.567836929097727,15,-87.44825459398498,40.56063995488723,0.6793401076394326,Fowler Ridge II
0.9979,1216.2,METERS,GHCND_USW00093042,36.0167,-102.55,2018-10-16,1948-12-10,"DALHART FAA AIRPORT, TX US",3.0814043149172723,16,-102.59496444827585,35.30766631034483,0.7104580034560649,Spinning Spur 2
0.473,1165.9,METERS,GHCND_USC00299284,35.36,-103.4433,2015-09-30,1965-02-01,"UTE DAM, NM US",3.0814043149172723,16,-102.59496444827585,35.30766631034483,0.8499482474786556,Spinning Spur 2
0.9492,1098.5,METERS,GHCND_USW00023047,35.2295,-101.7042,2018-10-16,1943-03-01,"AMARILLO AIRPORT, TX US",3.0814043149172723,16,-102.59496444827585,35.30766631034483,0.8941874939771275,Spinning Spur 2
0.9902,330.7,METERS,GHCND_USC00341750,35.0488,-97.9158,2018-10-15,1953-06-01,"CHICKASHA EXPERIMENT STATION, OK US",2.139864107581439,14,-98.15396823809523,35.376131873015865,0.4048089237275521,Minco III
0.9875,395.3,METERS,GHCND_USW00003954,35.53417,-97.64694,2018-10-16,1996-08-01,"OKLAHOMA CITY WILEY POST AIRPORT, OK US",2.139864107581439,14,-98.15396823809523,35.376131873015865,0.5310872657168579,Minco III
0.9213,391.7,METERS,GHCND_USW00013967,35.3889,-97.6006,2018-10-16,1941-12-14,"OKLAHOMA CITY WILL ROGERS WORLD AIRPORT, OK US",2.139864107581439,14,-98.15396823809523,35.376131873015865,0.5535155210102999,Minco III
0.8607,1309.4,METERS,GHCND_USW00024030,41.0993,-102.9863,2018-10-16,1948-01-01,"SIDNEY MUNICIPAL AIRPORT, NE US",2.139864107581439,14,-103.01463994285713,40.988606971428574,0.11426328778509676,Spring Canyon Expansion
0.9565,1316.7,METERS,GHCND_USC00257830,41.2294,-103.0214,2018-09-30,1908-12-01,"SIDNEY 6 NNW, NE US",2.139864107581439,14,-103.01463994285713,40.988606971428574,0.24088790127603682,Spring Canyon Expansion
0.9988,1130.5,METERS,GHCND_USC00051996,40.86,-102.803,2018-10-17,1996-03-01,"CROOK, CO US",2.139864107581439,14,-103.01463994285713,40.988606971428574,0.24765140523041773,Spring Canyon Expansion
0.9899,387.1,METERS,GHCND_USC00133632,41.6452,-95.3339,2016-02-24,1899-02-01,"HARLAN, IA US",2.139864107581439,14,-95.22941535294117,41.4594564509804,0.2131143061209309,Walnut Wind Project
0.9979,299.3,METERS,GHCND_USW00014942,41.3102,-95.8991,2018-10-16,1948-01-01,"OMAHA EPPLEY AIRFIELD, NE US",2.139864107581439,14,-95.22941535294117,41.4594564509804,0.6861158901130134,Walnut Wind Project
0.8289,297.2,METERS,GHCND_USC00137613,40.7672,-95.38,2018-10-17,1918-06-01,"SHENANDOAH, IA US",2.139864107581439,14,-95.22941535294117,41.4594564509804,0.7084452906568025,Walnut Wind Project
0.9691,140.2,METERS,GHCND_USC00114013,41.26472,-89.33806,2009-06-30,1962-08-01,"HENNEPIN POWER PLANT, IL US",3.0814043149172723,16,-89.62315916999998,41.077169669999996,0.34125747320430533,Camp Grove
0.9999,198.1,METERS,GHCND_USW00014842,40.6675,-89.6839,2018-10-16,1943-05-04,"PEORIA INTERNATIONAL AIRPORT, IL US",3.0814043149172723,16,-89.62315916999998,41.077169669999996,0.4141481461349298,Camp Grove
1.0,180.4,METERS,GHCND_USW00014923,41.46528,-90.52333,2018-10-16,1943-05-24,"MOLINE QUAD CITY INTERNATIONAL AIRPORT, IL US",3.0814043149172723,16,-89.62315916999998,41.077169669999996,0.9802740185456511,Camp Grove
0.9914,539.2,METERS,GHCND_USC00325993,48.1802,-101.2963,2018-10-17,1905-06-10,"MINOT EXPERIMENT STATION, ND US",1.4860167413759995,12,-101.27037012987017,47.93890581818182,0.2426834158822003,Prairie Winds ND 1
0.9808,507.5,METERS,GHCND_USW00024013,48.2552,-101.2733,2018-10-16,1948-07-02,"MINOT INTERNATIONAL AIRPORT, ND US",1.4860167413759995,12,-101.27037012987017,47.93890581818182,0.3163077513925467,Prairie Winds ND 1
0.9992,582.2,METERS,GHCND_USW00094041,47.64583,-101.43944,2018-10-15,1998-05-21,"GARRISON, ND US",1.4860167413759995,12,-101.27037012987017,47.93890581818182,0.33834605980957577,Prairie Winds ND 1
0.8174,368.8,METERS,GHCND_USC00328937,46.9558,-98.0203,2011-11-23,1893-04-01,"VALLEY CITY 3 NNW, ND US",3.0814043149172723,16,-97.93457171428571,47.16537471428571,0.22643078377165965,Ashtabula III
0.9998,455.4,METERS,GHCND_USW00014919,46.9258,-98.6691,2018-10-16,1948-07-01,"JAMESTOWN MUNICIPAL AIRPORT, ND US",3.0814043149172723,16,-97.93457171428571,47.16537471428571,0.7726110575441265,Ashtabula III
0.9951,256.6,METERS,GHCND_USW00014916,47.9428,-97.1839,2018-10-16,1948-08-07,"GRAND FORKS INTERNATIONAL AIRPORT, ND US",3.0814043149172723,16,-97.93457171428571,47.16537471428571,1.0806933410994053,Ashtabula III
0.9804,545.6,METERS,GHCND_USW00013962,32.4105,-99.6822,2018-10-16,1946-08-01,"ABILENE REGIONAL AIRPORT, TX US",3.0814043149172723,16,-100.21916738999997,32.43437008,0.537497682453226,Trent Mesa
0.9411,594.1,METERS,GHCND_USC00414278,31.84555,-99.56068,2018-10-17,1953-07-01,"HORDS CREEK DAM, TX US",3.0814043149172723,16,-100.21916738999997,32.43437008,0.8833542490983842,Trent Mesa
0.8222,598.6,METERS,GHCND_USC00416499,31.45389,-100.49333,2008-01-31,1975-12-01,"O C FISHER DAM, TX US",3.0814043149172723,16,-100.21916738999997,32.43437008,1.0180895461592934,Trent Mesa
0.9977,771.1,METERS,GHCND_USW00094946,41.43333,-99.63333,2018-10-16,1999-07-31,"BROKEN BOW MUNICIPAL AIRPORT, NE US",3.6976851779007265,17,-99.56019325581396,41.529365558139524,0.12071375968507152,Broken Bow II
0.9985,629.1,METERS,GHCND_USW00094958,41.62333,-98.94833,2018-10-16,2000-08-01,"ORD EVELYN SHARP FIELD, NE US",3.6976851779007265,17,-99.56019325581396,41.529365558139524,0.6190363156951362,Broken Bow II
1.0,846.7,METERS,GHCND_USW00024023,41.1213,-100.6694,2018-10-16,1948-01-01,"NORTH PLATTE REGIONAL AIRPORT, NE US",3.6976851779007265,17,-99.56019325581396,41.529365558139524,1.181887093206249,Broken Bow II
0.9999,373.4,METERS,GHCND_USW00014940,43.1544,-93.3269,2018-10-16,1948-01-01,"MASON CITY MUNICIPAL AIRPORT, IA US",3.6976851779007265,17,-93.85358631000003,43.19518786000001,0.5282633042951487,Crystal Lake I - GE Energy
0.9939,401.4,METERS,GHCND_USW00094971,43.40111,-94.74722,2018-10-16,1996-07-01,"ESTHERVILLE MUNICIPAL AIRPORT, IA US",3.6976851779007265,17,-93.85358631000003,43.19518786000001,0.9170523974371061,Crystal Lake I - GE Energy
0.9941,351.4,METERS,GHCND_USC00218692,44.0707,-93.5264,2018-10-04,1915-01-02,"WASECA SOUTHERN RESEARCH AND OUTREACH CENTER, MN US",3.6976851779007265,17,-93.85358631000003,43.19518786000001,0.9346509448659427,Crystal Lake I - GE Energy
0.9804,545.6,METERS,GHCND_USW00013962,32.4105,-99.6822,2018-10-16,1946-08-01,"ABILENE REGIONAL AIRPORT, TX US",3.0814043149172723,16,-100.43786035294114,32.30591822352942,0.7628629739192252,Sweetwater Phase III
0.8222,598.6,METERS,GHCND_USC00416499,31.45389,-100.49333,2008-01-31,1975-12-01,"O C FISHER DAM, TX US",3.0814043149172723,16,-100.43786035294114,32.30591822352942,0.8538319362939798,Sweetwater Phase III
0.2272,576.1,METERS,GHCND_USC00417944,31.37083,-100.49432,2018-10-17,1947-11-01,"SAN ANGELO WEATHER FORECAST OFFICE, TX US",3.0814043149172723,16,-100.43786035294114,32.30591822352942,0.9367911600401712,Sweetwater Phase III
0.9989,201.2,METERS,GHCND_USW00014845,43.53306,-84.07972,2018-10-16,1898-01-01,"SAGINAW MBS INTERNATIONAL AIRPORT, MI US",2.139864107581439,14,-84.44743109836065,43.42594450819672,0.3829950135992108,Gratiot
0.8192,236.2,METERS,GHCND_USW00014828,43.9758,-84.4908,2018-10-17,1892-12-01,"GLADWIN, MI US",2.139864107581439,14,-84.44743109836065,43.42594450819672,0.551563163650028,Gratiot
0.9327,261.8,METERS,GHCND_USW00014836,42.7761,-84.5997,2018-10-16,1948-01-01,"LANSING CAPITAL CITY AIRPORT, MI US",2.139864107581439,14,-84.44743109836065,43.42594450819672,0.6674456556453807,Gratiot
0.9901,246.0,METERS,GHCND_USW00004840,43.76944,-88.49083,2018-10-15,1996-08-02,"FOND DU LAC CO AIRPORT, WI US",2.567836929097727,15,-88.52509579310342,43.62112042528735,0.1522262816334548,Forward Wind Project
0.9978,238.4,METERS,GHCND_USW00094855,43.98444,-88.55694,2018-10-16,1996-07-01,"OSHKOSH WITTMAN REGIONAL AIRPORT, WI US",2.567836929097727,15,-88.52509579310342,43.62112042528735,0.3647124441011733,Forward Wind Project
0.9938,227.4,METERS,GHCND_USW00004841,43.76944,-87.85056,2018-10-15,1996-09-01,"SHEBOYGAN CO MEMORIAL AIRPORT, WI US",2.567836929097727,15,-88.52509579310342,43.62112042528735,0.6906498623909201,Forward Wind Project
0.6134,274.3,METERS,GHCND_USW00014914,46.9253,-96.8111,2018-10-16,1891-05-01,"FARGO HECTOR INTERNATIONAL AIRPORT, ND US",3.0814043149172723,16,-96.23815296875001,46.7136091875,0.6108038152427326,Lakeswind
0.2731,312.1,METERS,GHCND_USC00218947,45.8619,-96.565,2018-02-28,1939-09-01,"WHITE ROCK DAM, MN US",3.0814043149172723,16,-96.23815296875001,46.7136091875,0.9122705310974569,Lakeswind
0.9874,431.6,METERS,GHCND_USW00014910,45.8679,-95.3941,2018-10-15,1940-05-01,"ALEXANDRIA MUNICIPAL AIRPORT, MN US",3.0814043149172723,16,-96.23815296875001,46.7136091875,1.1948428532144428,Lakeswind
0.9637,179.8,METERS,GHCND_USW00094898,44.02194,-82.79306,2018-10-15,1999-06-24,"PORT HOPE, MI US",2.567836929097727,15,-82.94615454347827,43.71643971739131,0.3417138597083988,Michigan Wind I
0.9098,178.6,METERS,GHCND_USC00202423,44.2838,-83.5036,2018-10-17,1890-04-01,"EAST TAWAS, MI US",2.567836929097727,15,-82.94615454347827,43.71643971739131,0.7953886642884319,Michigan Wind I
0.9631,181.0,METERS,GHCND_CA006127510,43.0,-82.3167,2018-10-16,2009-12-17,"SARNIA, CA",2.567836929097727,15,-82.94615454347827,43.71643971739131,0.953676512744853,Michigan Wind I
0.8174,368.8,METERS,GHCND_USC00328937,46.9558,-98.0203,2011-11-23,1893-04-01,"VALLEY CITY 3 NNW, ND US",3.0814043149172723,16,-97.91947899259262,47.121002881481466,0.19353776785015178,Ashtabula Wind Center
0.9998,455.4,METERS,GHCND_USW00014919,46.9258,-98.6691,2018-10-16,1948-07-01,"JAMESTOWN MUNICIPAL AIRPORT, ND US",3.0814043149172723,16,-97.91947899259262,47.121002881481466,0.7746197904037362,Ashtabula Wind Center
0.9951,256.6,METERS,GHCND_USW00014916,47.9428,-97.1839,2018-10-16,1948-08-07,"GRAND FORKS INTERNATIONAL AIRPORT, ND US",3.0814043149172723,16,-97.91947899259262,47.121002881481466,1.1029174757654983,Ashtabula Wind Center
0.9964,694.9,METERS,GHCND_USC00414967,33.06417,-101.04889,2018-10-17,1994-05-01,"LAKE ALAN HENRY, TX US",2.567836929097727,15,-101.66242344565218,32.993017413043496,0.6176455128667571,Stephens Ranch II
0.981,991.8,METERS,GHCND_USW00023042,33.6656,-101.8231,2018-10-16,1945-08-10,"LUBBOCK INTERNATIONAL AIRPORT, TX US",2.567836929097727,15,-101.66242344565218,32.993017413043496,0.6915087066654957,Stephens Ranch II
0.5731,989.1,METERS,GHCND_USC00415410,33.6897,-101.8219,2018-10-17,1911-03-01,"LUBBOCK 9 N, TX US",2.567836929097727,15,-101.66242344565218,32.993017413043496,0.7147023145023821,Stephens Ranch II
0.9792,1575.8,METERS,GHCND_USC00251361,41.0102,-103.8769,2018-10-17,2002-05-01,"BUSHNELL 15 S, NE US",2.567836929097727,15,-103.79718706349209,40.9400076984127,0.10621257669804181,Cedar Creek II
0.8607,1309.4,METERS,GHCND_USW00024030,41.0993,-102.9863,2018-10-16,1948-01-01,"SIDNEY MUNICIPAL AIRPORT, NE US",2.567836929097727,15,-103.79718706349209,40.9400076984127,0.826384817796045,Cedar Creek II
0.9565,1316.7,METERS,GHCND_USC00257830,41.2294,-103.0214,2018-09-30,1908-12-01,"SIDNEY 6 NNW, NE US",2.567836929097727,15,-103.79718706349209,40.9400076984127,0.8280057198471957,Cedar Creek II
0.9965,291.1,METERS,GHCND_USW00094989,41.99056,-93.61889,2018-10-16,1996-10-01,"AMES MUNICIPAL AIRPORT, IA US",2.567836929097727,15,-93.28658131000003,42.10519407000001,0.3515252984555419,Story County
0.9938,296.9,METERS,GHCND_USW00094988,42.11056,-92.91611,2018-10-16,1996-10-01,"MARSHALLTOWN MUNICIPAL AIRPORT, IA US",2.567836929097727,15,-93.28658131000003,42.10519407000001,0.3705101681977181,Story County
0.9986,335.0,METERS,GHCND_USC00130200,42.0208,-93.7741,2018-10-10,1964-11-01,"AMES 8 WSW, IA US",2.567836929097727,15,-93.28658131000003,42.10519407000001,0.4947694737455581,Story County
0.9012,492.3,METERS,GHCND_USC00324958,48.7622,-98.3447,2018-10-17,1897-04-01,"LANGDON EXPERIMENTAL FARM, ND US",2.139864107581439,14,-98.30500826829265,48.62139967073171,0.14628795674281095,Langdon (4Q07)
0.9929,298.0,METERS,GHCND_CA005021849,49.1833,-98.0833,2018-10-15,1999-12-01,"MORDEN CDA CS, CA",2.139864107581439,14,-98.30500826829265,48.62139967073171,0.6040583881224917,Langdon (4Q07)
0.9294,446.2,METERS,GHCND_USW00014912,48.1069,-98.868,2014-07-02,1921-01-01,"DEVILS LAKE KDLR, ND US",2.139864107581439,14,-98.30500826829265,48.62139967073171,0.7626726697305135,Langdon (4Q07)
0.8179,397.5,METERS,GHCND_USW00014925,43.9041,-92.4916,2018-10-16,1893-01-01,"ROCHESTER INTERNATIONAL AIRPORT, MN US",3.0814043149172723,16,-92.48494877272728,43.40534342424242,0.49880092289977007,Crane Creek
0.9983,264.6,METERS,GHCND_USW00094910,42.5544,-92.4011,2018-10-16,1950-03-01,"WATERLOO MUNICIPAL AIRPORT, IA US",3.0814043149172723,16,-92.48494877272728,43.40534342424242,0.8550645168344199,Crane Creek
0.9999,373.4,METERS,GHCND_USW00014940,43.1544,-93.3269,2018-10-16,1948-01-01,"MASON CITY MUNICIPAL AIRPORT, IA US",3.0814043149172723,16,-92.48494877272728,43.40534342424242,0.8785524863527172,Crane Creek
0.2393,150.6,METERS,GHCND_USW00012907,27.53333,-99.46667,2018-10-16,1965-03-15,"LAREDO INTERNATIONAL AIRPORT, TX US",2.567836929097727,15,-98.90881239999999,27.576275080000006,0.5595081605964055,Cedro Hill
0.7522,131.1,METERS,GHCND_USC00415060,27.5684,-99.4982,2018-10-16,1946-09-01,"LAREDO 2, TX US",2.567836929097727,15,-98.90881239999999,27.576275080000006,0.5894402089430082,Cedro Hill
0.3484,52.7,METERS,GHCND_USW00012932,27.74111,-98.02472,2018-10-16,1948-01-01,"ALICE INTERNATIONAL AIRPORT, TX US",2.567836929097727,15,-98.90881239999999,27.576275080000006,0.8993274835059469,Cedro Hill
0.9833,372.2,METERS,GHCND_USC00417300,31.9633,-98.4941,2018-10-17,1963-06-01,"PROCTOR RESERVOIR, TX US",2.567836929097727,15,-98.48703595348837,31.38867062790696,0.5746727903991615,Goldthwaite
0.9838,392.6,METERS,GHCND_USW00003999,30.7406,-98.2354,2018-10-16,1996-09-15,"BURNET MUNICIPAL AIRPORT, TX US",2.567836929097727,15,-98.48703595348837,31.38867062790696,0.6952094589717015,Goldthwaite
0.3054,309.4,METERS,GHCND_USW00003902,31.06667,-97.83333,2014-10-23,1950-09-26,"ROBERT GRAY ARMY AIR FIELD, TX US",2.567836929097727,15,-98.48703595348837,31.38867062790696,0.7287083627889944,Goldthwaite
0.8552,355.7,METERS,GHCND_USC00414982,33.7542,-99.1442,2018-10-17,1962-04-01,"LAKE KEMP, TX US",3.6976851779007265,17,-99.64714822999997,33.34140889,0.6506561477117835,Willow Springs Wind Farm
0.9804,545.6,METERS,GHCND_USW00013962,32.4105,-99.6822,2018-10-16,1946-08-01,"ABILENE REGIONAL AIRPORT, TX US",3.6976851779007265,17,-99.64714822999997,33.34140889,0.931568563263683,Willow Springs Wind Farm
0.9856,382.5,METERS,GHCND_USW00003981,34.34444,-98.98306,2018-10-16,1998-02-01,"FREDERICK MUNICIPAL AIRPORT, OK US",3.6976851779007265,17,-99.64714822999997,33.34140889,1.2029482885196425,Willow Springs Wind Farm
0.9943,407.8,METERS,GHCND_USW00014972,43.16444,-95.20167,2018-10-15,1996-10-01,"SPENCER MUNICIPAL AIRPORT, IA US",3.0814043149172723,16,-94.73740721951215,42.599497146341456,0.7312320816581841,Pomeroy I
0.9939,401.4,METERS,GHCND_USW00094971,43.40111,-94.74722,2018-10-16,1996-07-01,"ESTHERVILLE MUNICIPAL AIRPORT, IA US",3.0814043149172723,16,-94.73740721951215,42.599497146341456,0.8016729119856189,Pomeroy I
0.9937,368.8,METERS,GHCND_USC00131442,42.7572,-95.5377,2018-10-17,1921-11-13,"CHEROKEE, IA US",3.0814043149172723,16,-94.73740721951215,42.599497146341456,0.8156829804237815,Pomeroy I
0.9862,1351.8,METERS,GHCND_USC00291963,34.5988,-103.2161,2018-10-17,1949-06-21,"CLOVIS 13 N, NM US",3.0814043149172723,16,-102.46911674999997,34.574349083333345,0.7473833173856933,Bethel
0.9492,1098.5,METERS,GHCND_USW00023047,35.2295,-101.7042,2018-10-16,1943-03-01,"AMARILLO AIRPORT, TX US",3.0814043149172723,16,-102.46911674999997,34.574349083333345,1.0071347268561814,Bethel
0.5731,989.1,METERS,GHCND_USC00415410,33.6897,-101.8219,2018-10-17,1911-03-01,"LUBBOCK 9 N, TX US",3.0814043149172723,16,-102.46911674999997,34.574349083333345,1.096126599496175,Bethel
0.2393,150.6,METERS,GHCND_USW00012907,27.53333,-99.46667,2018-10-16,1965-03-15,"LAREDO INTERNATIONAL AIRPORT, TX US",2.567836929097727,15,-98.91778322000002,27.45943532999999,0.5538385319866715,Javelina II
0.7522,131.1,METERS,GHCND_USC00415060,27.5684,-99.4982,2018-10-16,1946-09-01,"LAREDO 2, TX US",2.567836929097727,15,-98.91778322000002,27.45943532999999,0.5905564645431923,Javelina II
0.9837,97.5,METERS,GHCND_USC00413060,26.558,-99.1372,2018-10-17,1962-07-01,"FALCON DAM, TX US",2.567836929097727,15,-98.91778322000002,27.45943532999999,0.927755020206173,Javelina II
0.8607,1309.4,METERS,GHCND_USW00024030,41.0993,-102.9863,2018-10-16,1948-01-01,"SIDNEY MUNICIPAL AIRPORT, NE US",2.139864107581439,14,-103.01996057500003,40.96305559999999,0.14034090936250587,Spring Canyon
0.9988,1130.5,METERS,GHCND_USC00051996,40.86,-102.803,2018-10-17,1996-03-01,"CROOK, CO US",2.139864107581439,14,-103.01996057500003,40.96305559999999,0.240192314189488,Spring Canyon
0.9565,1316.7,METERS,GHCND_USC00257830,41.2294,-103.0214,2018-09-30,1908-12-01,"SIDNEY 6 NNW, NE US",2.139864107581439,14,-103.01996057500003,40.96305559999999,0.26634828956780443,Spring Canyon
0.9637,179.8,METERS,GHCND_USW00094898,44.02194,-82.79306,2018-10-15,1999-06-24,"PORT HOPE, MI US",2.567836929097727,15,-83.17823541428572,43.89107687142858,0.40679879325003,Echo
0.9098,178.6,METERS,GHCND_USC00202423,44.2838,-83.5036,2018-10-17,1890-04-01,"EAST TAWAS, MI US",2.567836929097727,15,-83.17823541428572,43.89107687142858,0.5099936954041195,Echo
0.8035,256.6,METERS,GHCND_USC00203527,44.3127,-83.8272,2009-09-30,2002-02-01,"HALE 5 SSW, MI US",2.567836929097727,15,-83.17823541428572,43.89107687142858,0.773899926384323,Echo
0.9964,694.9,METERS,GHCND_USC00414967,33.06417,-101.04889,2018-10-17,1994-05-01,"LAKE ALAN HENRY, TX US",2.567836929097727,15,-100.9886487818182,32.89249929999999,0.18193359669538714,Amazon Wind Farm Texas
0.7781,700.1,METERS,GHCND_USC00418566,33.47917,-100.87611,2018-10-16,1911-05-01,"SPUR, TX US",2.567836929097727,15,-100.9886487818182,32.89249929999999,0.5973671297046989,Amazon Wind Farm Texas
0.9252,765.0,METERS,GHCND_USW00023041,32.2443,-101.4537,2018-10-17,1948-01-01,"BIG SPRING, TX US",2.567836929097727,15,-100.9886487818182,32.89249929999999,0.7977687434669578,Amazon Wind Farm Texas
0.5051,538.3,METERS,GHCND_USW00024220,47.03389,-120.53028,2018-10-15,1940-05-04,"ELLENSBURG BOWERS FIELD, WA US",1.2383472844799996,11,-120.16181291666663,46.95391604999998,0.37704618308478705,Vantage Point
0.9507,130.5,METERS,GHCND_USC00456747,46.646,-119.9061,2018-10-16,1956-12-06,"PRIEST RAPIDS DAM, WA US",1.2383472844799996,11,-120.16181291666663,46.95391604999998,0.4002516578326071,Vantage Point
0.9683,392.0,METERS,GHCND_USC00456880,47.2235,-119.8524,2018-07-28,1941-03-01,"QUINCY, WA US",1.2383472844799996,11,-120.16181291666663,46.95391604999998,0.4103801397457777,Vantage Point
0.9252,765.0,METERS,GHCND_USW00023041,32.2443,-101.4537,2018-10-17,1948-01-01,"BIG SPRING, TX US",3.6976851779007265,17,-101.81411634177212,32.210436582278476,0.3620036884842225,Stanton Energy Center
1.0,872.3,METERS,GHCND_USW00023023,31.9475,-102.2086,2018-10-16,1930-06-01,"MIDLAND INTERNATIONAL AIRPORT, TX US",3.6976851779007265,17,-101.81411634177212,32.210436582278476,0.47408121973891637,Stanton Energy Center
0.9977,914.7,METERS,GHCND_USW00003031,31.92056,-102.38667,2018-10-16,1998-12-01,"ODESSA SCHLEMEYER FIELD, TX US",3.6976851779007265,17,-101.81411634177212,32.210436582278476,0.6417523856625491,Stanton Energy Center
0.9252,765.0,METERS,GHCND_USW00023041,32.2443,-101.4537,2018-10-17,1948-01-01,"BIG SPRING, TX US",3.0814043149172723,16,-101.11668729323308,31.992351383458647,0.4207798354240187,Panther Creek III
0.8222,598.6,METERS,GHCND_USC00416499,31.45389,-100.49333,2008-01-31,1975-12-01,"O C FISHER DAM, TX US",3.0814043149172723,16,-101.11668729323308,31.992351383458647,0.8237202052293465,Panther Creek III
0.2272,576.1,METERS,GHCND_USC00417944,31.37083,-100.49432,2018-10-17,1947-11-01,"SAN ANGELO WEATHER FORECAST OFFICE, TX US",3.0814043149172723,16,-101.11668729323308,31.992351383458647,0.8795623217161038,Panther Creek III
0.9939,401.4,METERS,GHCND_USW00094971,43.40111,-94.74722,2018-10-16,1996-07-01,"ESTHERVILLE MUNICIPAL AIRPORT, IA US",3.0814043149172723,16,-94.85385597014924,43.79362158208956,0.40673894847200803,Trimont Wind
0.9974,347.5,METERS,GHCND_USC00214546,44.2395,-95.3152,2018-10-02,1961-01-01,"LAMBERTON SOUTHWEST RESEARCH AND OUTREACH CENTER, MN US",3.0814043149172723,16,-94.85385597014924,43.79362158208956,0.6415963508603069,Trimont Wind
0.9943,407.8,METERS,GHCND_USW00014972,43.16444,-95.20167,2018-10-15,1996-10-01,"SPENCER MUNICIPAL AIRPORT, IA US",3.0814043149172723,16,-94.85385597014924,43.79362158208956,0.7189186759305528,Trimont Wind
0.9804,545.6,METERS,GHCND_USW00013962,32.4105,-99.6822,2018-10-16,1946-08-01,"ABILENE REGIONAL AIRPORT, TX US",2.567836929097727,15,-100.2462056460177,32.206878318584074,0.5996366882392179,Turkey Track
0.9411,594.1,METERS,GHCND_USC00414278,31.84555,-99.56068,2018-10-17,1953-07-01,"HORDS CREEK DAM, TX US",2.567836929097727,15,-100.2462056460177,32.206878318584074,0.7749216509807765,Turkey Track
0.8222,598.6,METERS,GHCND_USC00416499,31.45389,-100.49333,2008-01-31,1975-12-01,"O C FISHER DAM, TX US",2.567836929097727,15,-100.2462056460177,32.206878318584074,0.7925035357998341,Turkey Track
0.9964,694.9,METERS,GHCND_USC00414967,33.06417,-101.04889,2018-10-17,1994-05-01,"LAKE ALAN HENRY, TX US",3.0814043149172723,16,-100.73874271014496,32.46300559420289,0.676453977888972,Loraine
0.9252,765.0,METERS,GHCND_USW00023041,32.2443,-101.4537,2018-10-17,1948-01-01,"BIG SPRING, TX US",3.0814043149172723,16,-100.73874271014496,32.46300559420289,0.7476603929943703,Loraine
0.7781,700.1,METERS,GHCND_USC00418566,33.47917,-100.87611,2018-10-16,1911-05-01,"SPUR, TX US",3.0814043149172723,16,-100.73874271014496,32.46300559420289,1.0254071737271577,Loraine
0.9877,2013.5,METERS,GHCND_USW00003195,35.94611,-112.15472,2018-10-16,1996-07-01,"GRAND CANYON NATIONAL PARK AIRPORT, AZ US",2.139864107581439,14,-112.28974975806453,35.42978243548388,0.533692036142673,Perrin Ranch
0.9732,2239.4,METERS,GHCND_USC00023160,35.2681,-111.7428,2018-06-20,1909-01-01,"FORT VALLEY, AZ US",2.139864107581439,14,-112.28974975806453,35.42978243548388,0.5703466032079492,Perrin Ranch
0.9308,2068.1,METERS,GHCND_USC00023596,36.0527,-112.1502,2012-03-31,1976-05-01,"GRAND CANYON NATIONAL PARK 2, AZ US",2.139864107581439,14,-112.28974975806453,35.42978243548388,0.6383576013165086,Perrin Ranch
0.6669,701.0,METERS,GHCND_USC00465224,37.8566,-80.4042,2018-10-17,1851-04-01,"LEWISBURG 3 N, WV US",2.567836929097727,15,-80.52286531343286,38.078455447761186,0.2515974886866609,Beech Ridge
0.9982,423.7,METERS,GHCND_USC00460939,37.64128,-80.88331,2018-10-17,1943-03-01,"BLUESTONE LAKE, WV US",2.567836929097727,15,-80.52286531343286,38.078455447761186,0.5666063397100957,Beech Ridge
0.9971,539.5,METERS,GHCND_USC00443310,37.9458,-79.9542,2018-10-17,1980-06-01,"GATHRIGHT DAM, VA US",2.567836929097727,15,-80.52286531343286,38.078455447761186,0.5839329640655796,Beech Ridge
0.9863,215.8,METERS,GHCND_USC00129430,40.475,-86.9919,2018-10-17,1901-01-01,"WEST LAFAYETTE 6 NW, IN US",2.139864107581439,14,-87.57918480851066,40.72323134042553,0.6375909697265605,Settler's Trail
0.7581,230.1,METERS,GHCND_USW00014806,40.313,-88.1598,2018-10-15,1893-01-01,"RANTOUL, IL US",2.139864107581439,14,-87.57918480851066,40.72323134042553,0.7109175432182908,Settler's Trail
0.926,182.6,METERS,GHCND_USW00014835,40.41222,-86.93694,2018-10-16,1944-01-01,"LAFAYETTE PURDUE UNIVERSITY AIRPORT, IN US",2.139864107581439,14,-87.57918480851066,40.72323134042553,0.7135870289825701,Settler's Trail
0.9863,215.8,METERS,GHCND_USC00129430,40.475,-86.9919,2018-10-17,1901-01-01,"WEST LAFAYETTE 6 NW, IN US",2.567836929097727,15,-87.45743542857143,40.679160285714296,0.5083351822549033,Benton County Wind Farm
0.926,182.6,METERS,GHCND_USW00014835,40.41222,-86.93694,2018-10-16,1944-01-01,"LAFAYETTE PURDUE UNIVERSITY AIRPORT, IN US",2.567836929097727,15,-87.45743542857143,40.679160285714296,0.5849552182013422,Benton County Wind Farm
0.995,205.7,METERS,GHCND_USC00116344,40.1101,-87.9567,2018-10-17,2001-11-01,"OGDEN, IL US",2.567836929097727,15,-87.45743542857143,40.679160285714296,0.7570301982490432,Benton County Wind Farm
0.9995,304.8,METERS,GHCND_USW00013969,36.73667,-97.10194,2018-10-16,1948-01-01,"PONCA CITY MUNICIPAL AIRPORT, OK US",1.7832200896511994,13,-96.65345767857147,36.70667367857143,0.4494843400310716,Osage Wind
0.9908,350.5,METERS,GHCND_USW00013932,37.16806,-97.03694,2018-10-15,1996-07-01,"WINFIELD STROTHER FIELD AIRPORT, KS US",1.7832200896511994,13,-96.65345767857147,36.70667367857143,0.5999466880061951,Osage Wind
0.9361,217.9,METERS,GHCND_USW00003959,36.7683,-96.0261,2018-10-16,1920-01-01,"BARTLESVILLE MUNICIPAL AIRPORT, OK US",1.7832200896511994,13,-96.65345767857147,36.70667367857143,0.6303772365460251,Osage Wind
0.9863,215.8,METERS,GHCND_USC00129430,40.475,-86.9919,2018-10-17,1901-01-01,"WEST LAFAYETTE 6 NW, IN US",2.139864107581439,14,-87.48510933802822,40.692074971830976,0.538866397647558,Goodland I
0.926,182.6,METERS,GHCND_USW00014835,40.41222,-86.93694,2018-10-16,1944-01-01,"LAFAYETTE PURDUE UNIVERSITY AIRPORT, IN US",2.139864107581439,14,-87.48510933802822,40.692074971830976,0.6154741492644603,Goodland I
0.995,205.7,METERS,GHCND_USC00116344,40.1101,-87.9567,2018-10-17,2001-11-01,"OGDEN, IL US",2.139864107581439,14,-87.48510933802822,40.692074971830976,0.7490611592497898,Goodland I
0.9999,198.1,METERS,GHCND_USW00014842,40.6675,-89.6839,2018-10-16,1943-05-04,"PEORIA INTERNATIONAL AIRPORT, IL US",3.6976851779007265,17,-89.41575884848486,40.332609696969705,0.42901187885603487,Rail Splitter
0.9999,181.1,METERS,GHCND_USW00093822,39.8447,-89.6839,2018-10-16,1901-01-01,"SPRINGFIELD ABRAHAM LINCOLN CAPITAL AIRPORT, IL US",3.6976851779007265,17,-89.41575884848486,40.332609696969705,0.5567365171541475,Rail Splitter
0.9987,205.7,METERS,GHCND_USW00003887,39.83444,-88.86556,2018-10-16,2000-11-01,"DECATUR AIRPORT, IL US",3.6976851779007265,17,-89.41575884848486,40.332609696969705,0.742220869992852,Rail Splitter
0.9945,1408.8,METERS,GHCND_USC00057866,37.36944,-102.74278,2002-05-31,1956-09-01,"SPRINGFIELD 7 WSW, CO US",1.7832200896511994,13,-102.85971622,37.67288118000001,0.3251932183605454,Twin Buttes
0.9511,1162.5,METERS,GHCND_USC00054388,38.0634,-102.9298,2018-10-17,1941-08-01,"JOHN MARTIN DAM, CO US",1.7832200896511994,13,-102.85971622,37.67288118000001,0.3967577157325028,Twin Buttes
0.987,1129.0,METERS,GHCND_USW00003013,38.07,-102.68806,2018-10-16,1996-07-01,"LAMAR MUNICIPAL AIRPORT, CO US",1.7832200896511994,13,-102.85971622,37.67288118000001,0.4326305757373983,Twin Buttes
0.9937,368.8,METERS,GHCND_USC00131442,42.7572,-95.5377,2018-10-17,1921-11-13,"CHEROKEE, IA US",2.567836929097727,15,-95.31330338834957,42.51814404854368,0.3278743467349645,Intrepid
0.9943,407.8,METERS,GHCND_USW00014972,43.16444,-95.20167,2018-10-15,1996-10-01,"SPENCER MUNICIPAL AIRPORT, IA US",2.567836929097727,15,-95.31330338834957,42.51814404854368,0.6558661984454089,Intrepid
0.9907,426.7,METERS,GHCND_USC00131277,42.0633,-95.8363,2018-01-16,1948-07-01,"CASTANA EXPERIMENTAL FARM, IA US",2.567836929097727,15,-95.31330338834957,42.51814404854368,0.6931151161917024,Intrepid
0.7781,700.1,METERS,GHCND_USC00418566,33.47917,-100.87611,2018-10-16,1911-05-01,"SPUR, TX US",2.567836929097727,15,-100.98416886999998,33.76395802,0.30459963184677213,McAdoo
0.9964,694.9,METERS,GHCND_USC00414967,33.06417,-101.04889,2018-10-17,1994-05-01,"LAKE ALAN HENRY, TX US",2.567836929097727,15,-100.98416886999998,33.76395802,0.7027745709713749,McAdoo
0.5731,989.1,METERS,GHCND_USC00415410,33.6897,-101.8219,2018-10-17,1911-03-01,"LUBBOCK 9 N, TX US",2.567836929097727,15,-100.98416886999998,33.76395802,0.841015873634639,McAdoo
0.9942,195.7,METERS,GHCND_USW00003991,33.20611,-97.19889,2018-10-16,1996-07-01,"DENTON MUNICPAL AIRPORT, TX US",2.567836929097727,15,-97.40641697333331,33.73178472000001,0.5651560456263071,Wolf Ridge
0.9792,192.0,METERS,GHCND_USC00412404,33.1991,-97.1049,2018-10-12,1913-06-01,"DENTON 2 SE, TX US",2.567836929097727,15,-97.40641697333331,33.73178472000001,0.6120992534953484,Wolf Ridge
0.9977,208.8,METERS,GHCND_USW00053909,32.97333,-97.31806,2018-10-16,1997-10-01,"FORT WORTH ALLIANCE AIRPORT, TX US",2.567836929097727,15,-97.40641697333331,33.73178472000001,0.7635839947425013,Wolf Ridge
0.9964,694.9,METERS,GHCND_USC00414967,33.06417,-101.04889,2018-10-17,1994-05-01,"LAKE ALAN HENRY, TX US",3.0814043149172723,16,-100.80783393103448,32.76485559770115,0.3843138558634411,Camp Springs
0.7781,700.1,METERS,GHCND_USC00418566,33.47917,-100.87611,2018-10-16,1911-05-01,"SPUR, TX US",3.0814043149172723,16,-100.80783393103448,32.76485559770115,0.7175699874750564,Camp Springs
0.9252,765.0,METERS,GHCND_USW00023041,32.2443,-101.4537,2018-10-17,1948-01-01,"BIG SPRING, TX US",3.0814043149172723,16,-100.80783393103448,32.76485559770115,0.8295306560573691,Camp Springs
0.9867,460.9,METERS,GHCND_USC00148946,38.9667,-98.489,2018-10-17,1964-08-01,"WILSON LAKE, KS US",1.7832200896511994,13,-98.24339702020197,38.886611474747475,0.2583311741985458,Smoky Hills II
0.8924,454.8,METERS,GHCND_USC00144178,38.6078,-97.9596,2018-10-17,1941-03-01,"KANOPOLIS LAKE, KS US",1.7832200896511994,13,-98.24339702020197,38.886611474747475,0.39783990137539343,Smoky Hills II
0.9887,568.1,METERS,GHCND_USW00093997,38.87611,-98.80917,2018-10-15,1949-09-01,"RUSSELL MUNICIPAL AIRPORT, KS US",1.7832200896511994,13,-98.24339702020197,38.886611474747475,0.5658704318493857,Smoky Hills II
0.667,249.3,METERS,GHCND_USW00013993,39.7736,-94.9233,2018-10-16,1948-01-01,"ST JOSEPH ROSECRANS MEMORIAL AIRPORT, MO US",2.567836929097727,15,-94.50754507999999,39.98894685999999,0.4682162146018348,Lost Creek Ridge Wind Farm
0.8421,275.5,METERS,GHCND_USC00237862,39.3903,-94.5553,2018-10-17,1981-11-01,"SMITHVILLE LAKE, MO US",2.567836929097727,15,-94.50754507999999,39.98894685999999,0.6005485786945577,Lost Creek Ridge Wind Farm
1.0,306.3,METERS,GHCND_USW00003947,39.2972,-94.7306,2018-10-16,1972-10-01,"KANSAS CITY INTERNATIONAL AIRPORT, MO US",2.567836929097727,15,-94.50754507999999,39.98894685999999,0.7268199334471114,Lost Creek Ridge Wind Farm
0.9943,407.8,METERS,GHCND_USW00014972,43.16444,-95.20167,2018-10-15,1996-10-01,"SPENCER MUNICIPAL AIRPORT, IA US",3.0814043149172723,16,-94.74662402040818,42.589576183673465,0.7331679554264373,Pomeroy II (4Q07)
0.9937,368.8,METERS,GHCND_USC00131442,42.7572,-95.5377,2018-10-17,1921-11-13,"CHEROKEE, IA US",3.0814043149172723,16,-94.74662402040818,42.589576183673465,0.8086401853031018,Pomeroy II (4Q07)
0.9939,401.4,METERS,GHCND_USW00094971,43.40111,-94.74722,2018-10-16,1996-07-01,"ESTHERVILLE MUNICIPAL AIRPORT, IA US",3.0814043149172723,16,-94.74662402040818,42.589576183673465,0.8115340351662329,Pomeroy II (4Q07)
0.9899,387.1,METERS,GHCND_USC00133632,41.6452,-95.3339,2016-02-24,1899-02-01,"HARLAN, IA US",3.0814043149172723,16,-94.94529587,42.150064089999994,0.637103538857366,Carroll
0.9937,368.8,METERS,GHCND_USC00131442,42.7572,-95.5377,2018-10-17,1921-11-13,"CHEROKEE, IA US",3.0814043149172723,16,-94.94529587,42.150064089999994,0.8482668603998368,Carroll
0.9907,426.7,METERS,GHCND_USC00131277,42.0633,-95.8363,2018-01-16,1948-07-01,"CASTANA EXPERIMENTAL FARM, IA US",3.0814043149172723,16,-94.94529587,42.150064089999994,0.8952186140773561,Carroll
0.9252,765.0,METERS,GHCND_USW00023041,32.2443,-101.4537,2018-10-17,1948-01-01,"BIG SPRING, TX US",3.0814043149172723,16,-101.42282033684212,32.028913410526314,0.21758891635800512,Panther Creek I
1.0,872.3,METERS,GHCND_USW00023023,31.9475,-102.2086,2018-10-16,1930-06-01,"MIDLAND INTERNATIONAL AIRPORT, TX US",3.0814043149172723,16,-101.42282033684212,32.028913410526314,0.7899859634487443,Panther Creek I
0.9977,914.7,METERS,GHCND_USW00003031,31.92056,-102.38667,2018-10-16,1998-12-01,"ODESSA SCHLEMEYER FIELD, TX US",3.0814043149172723,16,-101.42282033684212,32.028913410526314,0.9699209425217243,Panther Creek I
0.8602,503.2,METERS,GHCND_USW00024011,46.7825,-100.7572,2018-10-16,1936-07-01,"BISMARCK MUNICIPAL AIRPORT, ND US",2.139864107581439,14,-100.69510650000001,47.13505884999999,0.3579851190420727,Baldwin
0.9915,533.4,METERS,GHCND_USC00325479,46.8127,-100.9097,2018-09-04,1913-07-16,"MANDAN EXPERIMENT STATION, ND US",2.139864107581439,14,-100.69510650000001,47.13505884999999,0.3872539198194964,Baldwin
0.9203,577.0,METERS,GHCND_USC00328840,47.5213,-100.8883,2018-10-07,1912-09-01,"TURTLE LAKE, ND US",2.139864107581439,14,-100.69510650000001,47.13505884999999,0.4318633515309818,Baldwin
0.9939,283.5,METERS,GHCND_USW00014777,41.3336,-75.7269,2018-10-16,1949-01-01,"WILKES BARRE SCRANTON INTERNATIONAL AIRPORT, PA US",2.139864107581439,14,-76.07719257954547,41.46764411363636,0.3750636155176557,Mehoopany
0.8975,459.9,METERS,GHCND_USC00363018,41.1184,-75.7277,2018-10-16,1963-10-01,"FRANCIS E WALTER DAM, PA US",2.139864107581439,14,-76.07719257954547,41.46764411363636,0.4940814852501483,Mehoopany
0.9293,145.7,METERS,GHCND_USC00362013,40.9591,-76.6176,2011-07-15,1939-11-06,"DANVILLE, PA US",2.139864107581439,14,-76.07719257954547,41.46764411363636,0.7420628649895571,Mehoopany
0.6424,181.1,METERS,GHCND_USW00014834,41.5,-88.16667,2018-10-17,1893-11-01,"JOLIET, IL US",2.567836929097727,15,-88.53868194696966,41.162395083333315,0.5023643781615882,Blackstone (Top Crop) II
0.9985,216.4,METERS,GHCND_USW00004808,41.77,-88.48139,2018-10-15,1998-10-08,"CHICAGO AURORA MUNICIPAL AIRPORT, IL US",2.567836929097727,15,-88.53868194696966,41.162395083333315,0.6103000097862578,Blackstone (Top Crop) II
0.9691,140.2,METERS,GHCND_USC00114013,41.26472,-89.33806,2009-06-30,1962-08-01,"HENNEPIN POWER PLANT, IL US",2.567836929097727,15,-88.53868194696966,41.162395083333315,0.8059005275078418,Blackstone (Top Crop) II
0.995,474.3,METERS,GHCND_USW00093986,34.9894,-99.0525,2018-10-16,1910-01-01,"HOBART MUNICIPAL AIRPORT, OK US",2.139864107581439,14,-99.00095208602151,35.12939066666667,0.1491796708312212,Rocky Ridge I
0.5464,585.8,METERS,GHCND_USW00003932,35.3568,-99.2042,2018-10-16,1958-08-17,"CLINTON SHERMAN AIRPORT, OK US",2.139864107581439,14,-99.00095208602151,35.12939066666667,0.3049995400385295,Rocky Ridge I
0.9498,464.8,METERS,GHCND_USC00340184,34.8847,-99.2964,2018-10-17,1945-08-01,"ALTUS DAM, OK US",2.139864107581439,14,-99.00095208602151,35.12939066666667,0.38361828974649037,Rocky Ridge I
0.9526,365.8,METERS,GHCND_USC00343740,36.7425,-98.133,2018-09-10,1946-03-12,"GREAT SALT PLAINS DAM, OK US",1.7832200896511994,13,-97.69082414814817,36.5584012962963,0.47896953626120314,Chisholm View II
0.9995,304.8,METERS,GHCND_USW00013969,36.73667,-97.10194,2018-10-16,1948-01-01,"PONCA CITY MUNICIPAL AIRPORT, OK US",1.7832200896511994,13,-97.69082414814817,36.5584012962963,0.6152757679775699,Chisholm View II
0.9704,414.5,METERS,GHCND_USW00013980,37.155,-98.0282,2018-10-17,1896-10-01,"ANTHONY, KS US",1.7832200896511994,13,-97.69082414814817,36.5584012962963,0.6853849127852771,Chisholm View II
0.9756,298.7,METERS,GHCND_USW00094957,40.08028,-95.59194,2018-10-16,1912-03-01,"FALLS CITY BRENNER FIELD, NE US",2.567836929097727,15,-95.90447082499998,40.00568612499999,0.32130945016087953,Flat Water
0.8829,318.5,METERS,GHCND_USW00014945,40.43444,-95.38833,2008-08-30,1912-06-01,"TARKIO, MO US",2.567836929097727,15,-95.90447082499998,40.00568612499999,0.6709927246693407,Flat Water
0.5855,347.5,METERS,GHCND_USC00137669,40.736,-95.643,2018-05-01,1895-04-01,"SIDNEY 1 SSE, IA US",2.567836929097727,15,-95.90447082499998,40.00568612499999,0.775709577318531,Flat Water
0.9939,401.4,METERS,GHCND_USW00094971,43.40111,-94.74722,2018-10-16,1996-07-01,"ESTHERVILLE MUNICIPAL AIRPORT, IA US",3.0814043149172723,16,-95.14048560583939,43.67217284671532,0.47763260316443334,Lakefield (phase I)
0.9943,407.8,METERS,GHCND_USW00014972,43.16444,-95.20167,2018-10-15,1996-10-01,"SPENCER MUNICIPAL AIRPORT, IA US",3.0814043149172723,16,-95.14048560583939,43.67217284671532,0.5114060751716231,Lakefield (phase I)
0.9974,347.5,METERS,GHCND_USC00214546,44.2395,-95.3152,2018-10-02,1961-01-01,"LAMBERTON SOUTHWEST RESEARCH AND OUTREACH CENTER, MN US",3.0814043149172723,16,-95.14048560583939,43.67217284671532,0.5936204329207426,Lakefield (phase I)
0.9252,765.0,METERS,GHCND_USW00023041,32.2443,-101.4537,2018-10-17,1948-01-01,"BIG SPRING, TX US",2.567836929097727,15,-101.30081687012984,31.93693142857144,0.3432909700253294,Panther Creek II
1.0,872.3,METERS,GHCND_USW00023023,31.9475,-102.2086,2018-10-16,1930-06-01,"MIDLAND INTERNATIONAL AIRPORT, TX US",2.567836929097727,15,-101.30081687012984,31.93693142857144,0.9078446483726823,Panther Creek II
0.8222,598.6,METERS,GHCND_USC00416499,31.45389,-100.49333,2008-01-31,1975-12-01,"O C FISHER DAM, TX US",2.567836929097727,15,-101.30081687012984,31.93693142857144,0.9409378657214383,Panther Creek II
0.9989,201.2,METERS,GHCND_USW00014845,43.53306,-84.07972,2018-10-16,1898-01-01,"SAGINAW MBS INTERNATIONAL AIRPORT, MI US",2.567836929097727,15,-83.55797383050847,43.53617894915252,0.5217554917994554,Tuscola II
1.0,234.7,METERS,GHCND_USW00014826,42.9666,-83.7494,2018-10-16,1948-05-02,"FLINT BISHOP INTERNATIONAL AIRPORT, MI US",2.567836929097727,15,-83.55797383050847,43.53617894915252,0.6008861436943672,Tuscola II
0.9098,178.6,METERS,GHCND_USC00202423,44.2838,-83.5036,2018-10-17,1890-04-01,"EAST TAWAS, MI US",2.567836929097727,15,-83.55797383050847,43.53617894915252,0.749595723783461,Tuscola II
0.9932,497.4,METERS,GHCND_USC00391076,44.3252,-96.7686,2018-10-16,1893-01-01,"BROOKINGS 2 NE, SD US",3.0814043149172723,16,-96.06648572727272,44.111106696969685,0.7340302407733601,Moraine II
0.9974,347.5,METERS,GHCND_USC00214546,44.2395,-95.3152,2018-10-02,1961-01-01,"LAMBERTON SOUTHWEST RESEARCH AND OUTREACH CENTER, MN US",3.0814043149172723,16,-96.06648572727272,44.111106696969685,0.7621778560590226,Moraine II
0.9561,435.9,METERS,GHCND_USC00397666,43.5877,-96.73,2018-10-17,2011-01-01,"SIOUX FALLS WEATHER FORECAST OFFICE AIRPORT, SD US",3.0814043149172723,16,-96.06648572727272,44.111106696969685,0.8451069521341862,Moraine II
0.9964,694.9,METERS,GHCND_USC00414967,33.06417,-101.04889,2018-10-17,1994-05-01,"LAKE ALAN HENRY, TX US",2.139864107581439,14,-101.22364735714282,32.95950633928571,0.20370227232326044,Red Canyon
0.7781,700.1,METERS,GHCND_USC00418566,33.47917,-100.87611,2018-10-16,1911-05-01,"SPUR, TX US",2.139864107581439,14,-101.22364735714282,32.95950633928571,0.6251660058550855,Red Canyon
0.9252,765.0,METERS,GHCND_USW00023041,32.2443,-101.4537,2018-10-17,1948-01-01,"BIG SPRING, TX US",2.139864107581439,14,-101.22364735714282,32.95950633928571,0.7512950993052151,Red Canyon
0.9084,502.9,METERS,GHCND_USC00253075,41.3594,-97.9761,2013-11-30,1901-03-01,"FULLERTON, NE US",2.567836929097727,15,-97.97385781481483,41.86455255555556,0.5051575316460393,Petersburg
1.0,472.7,METERS,GHCND_USW00014941,41.9855,-97.4352,2018-10-16,1945-10-01,"NORFOLK KARL STEFAN MEMORIAL AIRPORT, NE US",2.567836929097727,15,-97.97385781481483,41.86455255555556,0.5520693124769204,Petersburg
0.9788,515.1,METERS,GHCND_USC00256396,42.3691,-97.5983,2013-07-31,2008-09-01,"OSMOND NUMBER 1, NE US",2.567836929097727,15,-97.97385781481483,41.86455255555556,0.6289767849165134,Petersburg
0.9943,407.8,METERS,GHCND_USW00014972,43.16444,-95.20167,2018-10-15,1996-10-01,"SPENCER MUNICIPAL AIRPORT, IA US",3.0814043149172723,16,-94.780560375,42.609068349999994,0.6969727296611887,Pomeroy III
0.9937,368.8,METERS,GHCND_USC00131442,42.7572,-95.5377,2018-10-17,1921-11-13,"CHEROKEE, IA US",3.0814043149172723,16,-94.780560375,42.609068349999994,0.7714942627634219,Pomeroy III
0.9939,401.4,METERS,GHCND_USW00094971,43.40111,-94.74722,2018-10-16,1996-07-01,"ESTHERVILLE MUNICIPAL AIRPORT, IA US",3.0814043149172723,16,-94.780560375,42.609068349999994,0.7927430579575432,Pomeroy III
0.9953,1277.7,METERS,GHCND_USW00003026,39.24472,-102.28417,2018-10-16,1997-06-01,"BURLINGTON CARSON AIRPORT, CO US",2.567836929097727,15,-102.32884620588236,39.367916647058834,0.1310472327772746,Kit Carson Project
0.939,1132.9,METERS,GHCND_USC00050834,39.6567,-102.1193,2018-07-09,1949-06-01,"BONNY DAM 2 NE, CO US",2.567836929097727,15,-102.32884620588236,39.367916647058834,0.35679887518829895,Kit Carson Project
0.897,1114.3,METERS,GHCND_USW00023065,39.36722,-101.69333,2018-10-16,1895-06-01,"GOODLAND RENNER FIELD, KS US",2.567836929097727,15,-102.32884620588236,39.367916647058834,0.6355165877113098,Kit Carson Project
0.8412,570.0,METERS,GHCND_USC00355734,45.4825,-120.7236,2018-10-11,1897-11-01,"MORO, OR US",2.567836929097727,15,-120.28186091729324,45.882899390977464,0.5961988673972243,Big Horn
0.9283,253.0,METERS,GHCND_USC00456768,46.2014,-119.758,2018-10-17,1925-07-01,"PROSSER, WA US",2.567836929097727,15,-120.28186091729324,45.882899390977464,0.613084740158365,Big Horn
1.0,324.3,METERS,GHCND_USW00024243,46.5683,-120.5428,2018-10-16,1946-09-06,"YAKIMA AIRPORT, WA US",2.567836929097727,15,-120.28186091729324,45.882899390977464,0.7333915732624063,Big Horn
0.922,926.0,METERS,GHCND_USC00413280,30.9071,-102.9153,2018-10-08,1940-05-01,"FORT STOCKTON, TX US",3.0814043149172723,16,-102.1198500841122,30.926697411214963,0.7956912888879943,Desert Sky
0.9916,917.4,METERS,GHCND_USW00023091,30.91194,-102.91667,2018-10-16,1996-07-01,"FORT STOCKTON PECOS CO AIRPORT, TX US",3.0814043149172723,16,-102.1198500841122,30.926697411214963,0.7969565606362748,Desert Sky
0.9905,707.7,METERS,GHCND_USW00003032,30.04806,-102.21306,2018-10-16,1999-06-15,"DRYDEN TERRELL CO AIRPORT, TX US",3.0814043149172723,16,-102.1198500841122,30.926697411214963,0.8835676481211518,Desert Sky
0.9314,855.6,METERS,GHCND_USW00023040,31.7801,-103.2018,2018-10-16,1938-06-01,"WINKLER CO AIRPORT, TX US",3.0814043149172723,16,-102.82118325000002,31.96511002500002,0.4231995034626815,Notrees
0.9977,914.7,METERS,GHCND_USW00003031,31.92056,-102.38667,2018-10-16,1998-12-01,"ODESSA SCHLEMEYER FIELD, TX US",3.0814043149172723,16,-102.82118325000002,31.96511002500002,0.4367911047092021,Notrees
1.0,872.3,METERS,GHCND_USW00023023,31.9475,-102.2086,2018-10-16,1930-06-01,"MIDLAND INTERNATIONAL AIRPORT, TX US",3.0814043149172723,16,-102.82118325000002,31.96511002500002,0.6128363167772299,Notrees
0.2393,150.6,METERS,GHCND_USW00012907,27.53333,-99.46667,2018-10-16,1965-03-15,"LAREDO INTERNATIONAL AIRPORT, TX US",2.567836929097727,15,-98.91654307692309,27.180016666666663,0.653811855968652,Sendero
0.9837,97.5,METERS,GHCND_USC00413060,26.558,-99.1372,2018-10-17,1962-07-01,"FALCON DAM, TX US",2.567836929097727,15,-98.91654307692309,27.180016666666663,0.6599956146163998,Sendero
0.7522,131.1,METERS,GHCND_USC00415060,27.5684,-99.4982,2018-10-16,1946-09-01,"LAREDO 2, TX US",2.567836929097727,15,-98.91654307692309,27.180016666666663,0.6994043106633016,Sendero
0.9289,787.0,METERS,GHCND_USW00013985,37.7686,-99.9678,2018-10-16,1909-04-01,"DODGE CITY REGIONAL AIRPORT, KS US",3.0814043149172723,16,-99.84624026984126,37.840682825396826,0.14132480926381685,Spearville 3
0.9407,878.4,METERS,GHCND_USW00023064,37.92722,-100.72472,2018-10-16,1947-03-01,"GARDEN CITY REGIONAL AIRPORT, KS US",3.0814043149172723,16,-99.84624026984126,37.840682825396826,0.8827317366494085,Spearville 3
0.9731,650.7,METERS,GHCND_USC00141383,38.7978,-99.723,2018-10-17,1949-08-01,"CEDAR BLUFF DAM, KS US",3.0814043149172723,16,-99.84624026984126,37.840682825396826,0.9650188858415749,Spearville 3
0.9964,694.9,METERS,GHCND_USC00414967,33.06417,-101.04889,2018-10-17,1994-05-01,"LAKE ALAN HENRY, TX US",2.567836929097727,15,-101.65360257627115,32.90786844915255,0.6245858425371275,Stephens Ranch 1
0.9252,765.0,METERS,GHCND_USW00023041,32.2443,-101.4537,2018-10-17,1948-01-01,"BIG SPRING, TX US",2.567836929097727,15,-101.65360257627115,32.90786844915255,0.6930253434836027,Stephens Ranch 1
0.981,991.8,METERS,GHCND_USW00023042,33.6656,-101.8231,2018-10-16,1945-08-10,"LUBBOCK INTERNATIONAL AIRPORT, TX US",2.567836929097727,15,-101.65360257627115,32.90786844915255,0.7764576484267444,Stephens Ranch 1
0.9283,253.0,METERS,GHCND_USC00456768,46.2014,-119.758,2018-10-17,1925-07-01,"PROSSER, WA US",2.567836929097727,15,-120.07569677647061,45.74884908235291,0.5529317994500218,Shepherds Flat (2011)
0.8412,570.0,METERS,GHCND_USC00355734,45.4825,-120.7236,2018-10-11,1897-11-01,"MORO, OR US",2.567836929097727,15,-120.07569677647061,45.74884908235291,0.7005143972325061,Shepherds Flat (2011)
0.9957,195.4,METERS,GHCND_USW00004113,45.82583,-119.26111,2018-10-16,1998-03-16,"HERMISTON MUNICIPAL AIRPORT, OR US",2.567836929097727,15,-120.07569677647061,45.74884908235291,0.8182161560874732,Shepherds Flat (2011)
0.9964,522.7,METERS,GHCND_USW00094052,45.54639,-100.40778,2018-10-16,1998-01-01,"MOBRIDGE MUNICIPAL AIRPORT, SD US",4.437222213480871,18,-100.27516132727276,45.78931663636363,0.27676897046251897,Campbell County
0.7968,559.3,METERS,GHCND_USC00397277,45.4526,-99.3358,2018-10-17,1934-12-01,"ROSCOE, SD US",4.437222213480871,18,-100.27516132727276,45.78931663636363,0.9978866650976252,Campbell County
0.8602,503.2,METERS,GHCND_USW00024011,46.7825,-100.7572,2018-10-16,1936-07-01,"BISMARCK MUNICIPAL AIRPORT, ND US",4.437222213480871,18,-100.27516132727276,45.78931663636363,1.1039811935937558,Campbell County
0.9939,401.4,METERS,GHCND_USW00094971,43.40111,-94.74722,2018-10-16,1996-07-01,"ESTHERVILLE MUNICIPAL AIRPORT, IA US",3.0814043149172723,16,-94.94075274242424,43.75909698484848,0.40695159873276443,Elm Creek
0.9974,347.5,METERS,GHCND_USC00214546,44.2395,-95.3152,2018-10-02,1961-01-01,"LAMBERTON SOUTHWEST RESEARCH AND OUTREACH CENTER, MN US",3.0814043149172723,16,-94.94075274242424,43.75909698484848,0.6090958920175712,Elm Creek
0.9943,407.8,METERS,GHCND_USW00014972,43.16444,-95.20167,2018-10-15,1996-10-01,"SPENCER MUNICIPAL AIRPORT, IA US",3.0814043149172723,16,-94.94075274242424,43.75909698484848,0.6493802775954498,Elm Creek
0.9965,352.7,METERS,GHCND_USC00410225,29.4608,-101.0286,2018-10-15,1964-05-01,"AMISTAD DAM, TX US",4.437222213480871,18,-100.7723953623189,29.767658000000004,0.39975323455014594,Rocksprings
0.8584,304.5,METERS,GHCND_USW00022010,29.3784,-100.927,2018-10-16,1946-08-09,"DEL RIO INTERNATIONAL AIRPORT, TX US",4.437222213480871,18,-100.7723953623189,29.767658000000004,0.41883694268355715,Rocksprings
